final_name,detail_url,_parse_status,ratingValue,reviewCount,price_min,price_max,price_avg,streetAddress,addressLocality,addressCountry,lat,lng,amenities
Hotel Indigo Saigon the City by IHG,https://www.tripadvisor.com.vn/Hotel_Review-g293925-d26848304-Reviews-Hotel_Indigo_Saigon_the_City_by_IHG-Ho_Chi_Minh_City.html,blocked,0.0,0.0,,,,,,Việt Nam,0.0,0.0,
La Vela Saigon Hotel,https://www.tripadvisor.com.vn/Hotel_Review-g293925-d20411635-Reviews-La_Vela_Saigon_Hotel-Ho_Chi_Minh_City.html,ok_jsonld,4.8,2164.0,2684211.0,8342105.0,5513158.0,280 Nam Ky Khoi Nghia,Thành phố Hồ Chí Minh,Việt Nam,10.788694,106.68536,
Au Lac Charner Hotel,https://www.tripadvisor.com.vn/Hotel_Review-g293925-d15113167-Reviews-Au_Lac_Charner_Hotel-Ho_Chi_Minh_City.html,ok_jsonld,4.8,4120.0,2368421.0,3973684.0,3171052.5,87-89-91 Hồ Tùng Mậu Street,Thành phố Hồ Chí Minh,Việt Nam,10.772157,106.70363,
Khách sạn Windsor Plaza,https://www.tripadvisor.com.vn/Hotel_Review-g293925-d505784-Reviews-Windsor_Plaza_Hotel-Ho_Chi_Minh_City.html,ok_jsonld,4.2,1375.0,1868421.0,2447368.0,2157894.5,18 An Dương Vương Quận 5,Thành phố Hồ Chí Minh,Việt Nam,10.75786,106.673355,
Hotel Majestic Saigon,https://www.tripadvisor.com.vn/Hotel_Review-g293925-d302780-Reviews-Hotel_Majestic_Saigon-Ho_Chi_Minh_City.html,ok_jsonld,4.2,3928.0,3421053.0,6947368.0,5184210.5,"1 Dong Khoi Street, Ben Nghe Ward, District 1",Thành phố Hồ Chí Minh,Việt Nam,10.772795,106.706184,
Lotte Hotel Saigon,https://www.tripadvisor.com.vn/Hotel_Review-g293925-d306225-Reviews-Lotte_Hotel_Saigon-Ho_Chi_Minh_City.html,ok_jsonld,4.7,3459.0,3605263.0,9657895.0,6631579.0,2A - 4A Ton Duc Thang St,Thành phố Hồ Chí Minh,Việt Nam,10.778639,106.706825,
Mai House Saigon Hotel,https://www.tripadvisor.com.vn/Hotel_Review-g293925-d16811734-Reviews-Mai_House_Saigon_Hotel-Ho_Chi_Minh_City.html,ok_jsonld,4.8,921.0,3315789.0,8526316.0,5921052.5,"157 Nam Ky Khoi Nghia St, Xuan Hoa Ward",Thành phố Hồ Chí Minh,Việt Nam,10.782093,106.69158,
Fusion Original Saigon Centre,https://www.tripadvisor.com.vn/Hotel_Review-g293925-d24147557-Reviews-Fusion_Original_Saigon_Centre-Ho_Chi_Minh_City.html,ok_jsonld,4.7,187.0,3631579.0,7210526.0,5421052.5,65 Le Loi Street District 1,Thành phố Hồ Chí Minh,Việt Nam,10.773565,106.70123,
Muong Thanh Luxury Sai Gon,https://www.tripadvisor.com.vn/Hotel_Review-g293925-d21132746-Reviews-Muong_Thanh_Luxury_Sai_Gon-Ho_Chi_Minh_City.html,ok_jsonld,4.6,157.0,1473684.0,3631579.0,2552631.5,"261C Nguyễn Văn Trỗi Phường 10, Phú Nhuận",Thành phố Hồ Chí Minh,Việt Nam,10.797232,106.67202,
The Reverie Saigon,https://www.tripadvisor.com.vn/Hotel_Review-g293925-d7319538-Reviews-The_Reverie_Saigon-Ho_Chi_Minh_City.html,ok_jsonld,4.8,1872.0,6500000.0,13184211.0,9842105.5,22-36 Nguyễn Huệ 57 - 69F Đồng Khởi,Thành phố Hồ Chí Minh,Việt Nam,10.773942,106.70474,
La Siesta Premium Saigon Central,https://www.tripadvisor.com.vn/Hotel_Review-g293925-d28236340-Reviews-La_Siesta_Premium_Saigon_Central-Ho_Chi_Minh_City.html,ok_jsonld,5.0,374.0,2868421.0,8947368.0,5907894.5,"47 - 51 Le Anh Xuan St., Ben Thanh Ward",Thành phố Hồ Chí Minh,Việt Nam,10.772023,106.695015,
Hotel Nikko Saigon,https://www.tripadvisor.com.vn/Hotel_Review-g293925-d2244762-Reviews-Hotel_Nikko_Saigon-Ho_Chi_Minh_City.html,ok_jsonld,4.7,5005.0,3447368.0,7184211.0,5315789.5,235 Nguyen Van Cu St. Nowzone Fashion Mall,Thành phố Hồ Chí Minh,Việt Nam,10.764385,106.68295,
Orchids Hotel,https://www.tripadvisor.com.vn/Hotel_Review-g293925-d15182496-Reviews-Orchids_Hotel-Ho_Chi_Minh_City.html,ok_jsonld,4.6,529.0,1973684.0,7184211.0,4578947.5,192 Pasteur,Thành phố Hồ Chí Minh,Việt Nam,10.781148,106.69552,
Liberty Central Saigon Centre,https://www.tripadvisor.com.vn/Hotel_Review-g293925-d1656786-Reviews-Liberty_Central_Saigon_Centre-Ho_Chi_Minh_City.html,ok_jsonld,4.3,2260.0,1526316.0,5157895.0,3342105.5,"179 Le Thanh Ton St., Ben Thanh Ward",Thành phố Hồ Chí Minh,Việt Nam,10.773597,106.69863,
ibis Saigon Airport,https://www.tripadvisor.com.vn/Hotel_Review-g293925-d11666041-Reviews-Ibis_Saigon_Airport-Ho_Chi_Minh_City.html,ok_jsonld,4.3,974.0,1657895.0,2421053.0,2039474.0,2 Hong Ha St W2,Thành phố Hồ Chí Minh,Việt Nam,10.813192,106.66617,
T-Ritz Saigon Hotel & Apartment,https://www.tripadvisor.com.vn/Hotel_Review-g293925-d14758801-Reviews-T_Ritz_Saigon_Hotel_Apartment-Ho_Chi_Minh_City.html,ok_jsonld,4.5,234.0,1947368.0,4210526.0,3078947.0,20-22 Phạm Ngọc Thạch Xuan Hoa Ward,Thành phố Hồ Chí Minh,Việt Nam,10.784232,106.69446,
Mia Saigon Luxury Boutique Hotel,https://www.tripadvisor.com.vn/Hotel_Review-g293925-d17511872-Reviews-Mia_Saigon_Luxury_Boutique_Hotel-Ho_Chi_Minh_City.html,ok_jsonld,4.8,395.0,5052632.0,10236842.0,7644737.0,"2-4 Đường số 10 An Phú, Thành phố Thủ Đức (Quận 2 trước đây)",Thành phố Hồ Chí Minh,Việt Nam,10.810142,106.75087,
Bay Hotel Ho Chi Minh,https://www.tripadvisor.com.vn/Hotel_Review-g293925-d10030342-Reviews-Bay_Hotel_Ho_Chi_Minh-Ho_Chi_Minh_City.html,ok_jsonld,4.3,1084.0,1210526.0,3578947.0,2394736.5,7 Ngo Van Nam Street District 1,Thành phố Hồ Chí Minh,Việt Nam,10.780804,106.70693,
Khách sạn Sài Gòn Prince,https://www.tripadvisor.com.vn/Hotel_Review-g293925-d306204-Reviews-Saigon_Prince_Hotel-Ho_Chi_Minh_City.html,ok_jsonld,4.0,1748.0,2078947.0,5842105.0,3960526.0,63 Nguyễn Huệ District 1,Thành phố Hồ Chí Minh,Việt Nam,10.772835,106.70406,
EMM Hotel Saigon,https://www.tripadvisor.com.vn/Hotel_Review-g293925-d5960339-Reviews-EMM_Hotel_Saigon-Ho_Chi_Minh_City.html,ok_jsonld,4.6,469.0,1105263.0,2894737.0,2000000.0,"157 Pasteur Street Vo Thi Sau Ward, District 3",Thành phố Hồ Chí Minh,Việt Nam,10.78494,106.69074,
The Odys Boutique Hotel,https://www.tripadvisor.com.vn/Hotel_Review-g293925-d3561871-Reviews-The_Odys_Boutique_Hotel-Ho_Chi_Minh_City.html,ok_jsonld,4.2,166.0,1263158.0,3763158.0,2513158.0,65-67-69 Nguyen Thai Binh Street District 1,Thành phố Hồ Chí Minh,Việt Nam,10.769497,106.70012,
"Vinpearl Landmark 81, Autograph Collection",https://www.tripadvisor.com.vn/Hotel_Review-g293925-d16783440-Reviews-Vinpearl_Landmark_81_Autograph_Collection-Ho_Chi_Minh_City.html,ok_jsonld,4.9,1228.0,5552632.0,11289474.0,8421053.0,720a Dien Bien Phu Landmark 81,Thành phố Hồ Chí Minh,Việt Nam,10.795227,106.721886,
Wink Hotel Saigon Centre,https://www.tripadvisor.com.vn/Hotel_Review-g293925-d21499770-Reviews-Wink_Hotel_Saigon_Centre-Ho_Chi_Minh_City.html,ok_jsonld,4.7,519.0,1842105.0,4078947.0,2960526.0,75 Đ. Nguyễn Bỉnh Khiêm,Thành phố Hồ Chí Minh,Việt Nam,10.791237,106.70043,
Signature By M Village Le Thanh Ton,https://www.tripadvisor.com.vn/Hotel_Review-g293925-d26506936-Reviews-Signature_By_M_Village_Le_Thanh_Ton-Ho_Chi_Minh_City.html,ok_jsonld,4.9,648.0,2894737.0,6131579.0,4513158.0,"24 Le Thanh Ton, Ben Nghe Ward, District 1",Thành phố Hồ Chí Minh,Việt Nam,10.780416,106.70444,
Khách sạn Rex,https://www.tripadvisor.com.vn/Hotel_Review-g293925-d302836-Reviews-Rex_Hotel-Ho_Chi_Minh_City.html,ok_jsonld,4.0,3194.0,2921053.0,5526316.0,4223684.5,141 Nguyen Hue Blvd District 1,Thành phố Hồ Chí Minh,Việt Nam,10.775954,106.70128,
Liberty Central Saigon Citypoint Hotel,https://www.tripadvisor.com.vn/Hotel_Review-g293925-d6930018-Reviews-Liberty_Central_Saigon_Citypoint_Hotel-Ho_Chi_Minh_City.html,ok_jsonld,4.6,3356.0,2157895.0,7763158.0,4960526.5,"59 - 61 Pasteur, Q.1 Saigon Ward",Thành phố Hồ Chí Minh,Việt Nam,10.7747,106.70072,
M City Hotel Saigon,https://www.tripadvisor.com.vn/Hotel_Review-g293925-d26145541-Reviews-M_City_Hotel_Saigon-Ho_Chi_Minh_City.html,ok_jsonld,4.8,147.0,2052632.0,4921053.0,3486842.5,52B Phạm Hồng Thái,Thành phố Hồ Chí Minh,Việt Nam,10.771416,106.69443,
Fusion Suites Sài Gòn,https://www.tripadvisor.com.vn/Hotel_Review-g293925-d10151324-Reviews-Fusion_Suites_Saigon-Ho_Chi_Minh_City.html,ok_jsonld,4.6,949.0,2552632.0,5578947.0,4065789.5,3 - 5 Sương Nguyệt Ánh Q.1,Thành phố Hồ Chí Minh,Việt Nam,10.77266,106.68991,
Icon Saigon - LifeStyle Hotel,https://www.tripadvisor.com.vn/Hotel_Review-g293925-d19502020-Reviews-Icon_Saigon_LifeStyle_Hotel-Ho_Chi_Minh_City.html,ok_jsonld,4.5,147.0,1947368.0,3184211.0,2565789.5,"65-67 Hai Ba Trung St Ben Nghe, District 1",Thành phố Hồ Chí Minh,Việt Nam,10.776817,106.70455,
Sotetsu Grand Fresa Saigon,https://www.tripadvisor.com.vn/Hotel_Review-g293925-d26368813-Reviews-Sotetsu_Grand_Fresa_Saigon-Ho_Chi_Minh_City.html,ok_jsonld,4.9,271.0,2263158.0,3921053.0,3092105.5,"8 Ly Tu Trong Sai Gon Ward, District 1",Thành phố Hồ Chí Minh,Việt Nam,10.782407,106.70489,
Little Saigon Boutique Hotel,https://www.tripadvisor.com.vn/Hotel_Review-g293925-d2463254-Reviews-Little_Saigon_Boutique_Hotel-Ho_Chi_Minh_City.html,ok_jsonld,4.5,1263.0,1052632.0,24000000.0,12526316.0,36Bis/ 2 Le Loi Street,Thành phố Hồ Chí Minh,Việt Nam,10.774724,106.700195,
Khách sạn Renaissance Sài Gòn Riverside,https://www.tripadvisor.com.vn/Hotel_Review-g293925-d299783-Reviews-Renaissance_Riverside_Hotel_Saigon-Ho_Chi_Minh_City.html,ok_jsonld,4.5,4650.0,4184211.0,6526316.0,5355263.5,8-15 Ton Duc Thang Street Saigon Ward,Thành phố Hồ Chí Minh,Việt Nam,10.7744,106.70618,
"RIHGA Royal Hotel Osaka, Vignette Collection",https://www.tripadvisor.com.vn/Hotel_Review-g298566-d302408-Reviews-RIHGA_Royal_Hotel_Osaka_Vignette_Collection-Osaka_Osaka_Prefecture_Kinki.html,ok_jsonld,4.0,2157.0,3605263.0,8631579.0,6118421.0,5-3-68 Nakanoshima Kita-Ku,,Nhật Bản,34.68995,135.4873,
Avani+ Riverside Bangkok Hotel,https://www.tripadvisor.com.vn/Hotel_Review-g293916-d8822150-Reviews-Avani_Riverside_Bangkok_Hotel-Bangkok.html,ok_jsonld,4.7,5618.0,3631579.0,9736842.0,6684210.5,257 Charoennakorn Road,Bangkok,Thái Lan,13.705231,100.491066,
Khách sạn Rex Quảng Bình,https://www.tripadvisor.com.vn/Hotel_Review-g659924-d23618700-Reviews-Rex_Quang_Binh_Hotel-Dong_Hoi_Quang_Binh_Province.html,ok_jsonld,4.7,24.0,605263.0,1394737.0,1000000.0,09 Bạch Đằng,Đồng Hới,Việt Nam,17.464132,106.60955,
Yuki Homestay,https://www.tripadvisor.com.vn/Hotel_Review-g293922-d18444608-Reviews-Yuki_Homestay-Da_Lat_Lam_Dong_Province.html,ok_jsonld,0.0,0.0,,,,82 Nguyen Thi Nghia,Đà Lạt,Việt Nam,11.94213,108.43336,
Green River Boutique Hotel,https://www.tripadvisor.com.vn/Hotel_Review-g303946-d15522332-Reviews-Green_River_Boutique_Hotel-Vung_Tau_Ba_Ria_Vung_Tau_Province.html,ok_jsonld,0.0,0.0,973684.0,1157895.0,1065789.5,324/4 Binh Gia Nguyen AN Ninh Ward,Vũng Tàu,Việt Nam,10.35502,107.09238,
Khách Sạn Lầu 7,https://www.tripadvisor.com.vn/Hotel_Review-g293928-d6717507-Reviews-Lau_7_Hotel-Nha_Trang_Khanh_Hoa_Province.html,ok_jsonld,3.5,2.0,,,,129 Thống Nhất Vạn Thắng,Nha Trang,Việt Nam,12.25155,109.18878,
Lotusama Hanoi Hotel,https://www.tripadvisor.com.vn/Hotel_Review-g27501570-d14770771-Reviews-Lotusama_Hanoi_Hotel-Hoan_Kiem_Hanoi.html,ok_jsonld,4.9,218.0,1315789.0,5500000.0,3407894.5,35 Hàng Gà Str.,Hoan Kiem,Việt Nam,21.035435,105.84707,
Trăng Quê Homestay,https://www.tripadvisor.com.vn/Hotel_Review-g298082-d8262167-Reviews-Countryside_Moon_Homestay-Hoi_An_Quang_Nam_Province.html,ok_jsonld,4.8,77.0,421053.0,447368.0,434210.5,163/10 Trần Nhân Tông,,Việt Nam,15.878795,108.34658,
Trump International Hotel Las Vegas,https://www.tripadvisor.com.vn/Hotel_Review-g45963-d1022061-Reviews-Trump_International_Hotel_Las_Vegas-Las_Vegas_Nevada.html,ok_jsonld,4.4,16263.0,3921053.0,14210526.0,9065789.5,2000 Fashion Show Drive,Las Vegas,Hoa Kỳ,36.12944,-115.17272,
Nguyen Ha Hotel,https://www.tripadvisor.com.vn/Hotel_Review-g303946-d8570556-Reviews-Nguyen_Ha_Hotel-Vung_Tau_Ba_Ria_Vung_Tau_Province.html,ok_jsonld,3.9,10.0,289474.0,552632.0,421053.0,"81/16 Thuy Van, Ward 2",Vũng Tàu,Việt Nam,10.33076,107.08848,
Avari Hotel,https://www.tripadvisor.com.vn/Hotel_Review-g293928-d27943758-Reviews-Avari_Hotel-Nha_Trang_Khanh_Hoa_Province.html,ok_jsonld,4.4,7.0,500000.0,1131579.0,815789.5,10 Hoàng Diệu,Nha Trang,Việt Nam,12.220629,109.20241,
Minawa Kenhga Resort & Spa Ninh Binh,https://www.tripadvisor.com.vn/Hotel_Review-g3814836-d25551038-Reviews-Minawa_Kenhga_Resort_Spa_Ninh_Binh-Gia_Thinh_Ninh_Binh_Province.html,ok_jsonld,3.0,4.0,2263158.0,13210526.0,7736842.0,Thôn Kênh Gà,Gia Thịnh,Việt Nam,20.330162,105.81631,
Homestay BONO Mui Ne,https://www.tripadvisor.com.vn/Hotel_Review-g298086-d19763458-Reviews-Homestay_BONO_Mui_Ne-Phan_Thiet_Binh_Thuan_Province.html,ok_jsonld,4.0,1.0,342105.0,763158.0,552631.5,200 Huynh Thuc Khang,,Việt Nam,10.940197,108.28061,
Phuong Chi Hotel,https://www.tripadvisor.com.vn/Hotel_Review-g311304-d12448497-Reviews-Phuong_Chi_Hotel-Sapa_Lao_Cai_Province.html,ok_jsonld,5.0,1.0,,,,196 Dien Bien Phu,Sapa,Việt Nam,22.4833,103.9499,
Blue Tropical House Hội An,https://www.tripadvisor.com.vn/Hotel_Review-g298082-d32652371-Reviews-Blue_Tropical_House_H_i_An-Hoi_An_Quang_Nam_Province.html,ok_jsonld,5.0,23.0,605263.0,815789.0,710526.0,Tổ 1 Khối Xuân Hòa,,Việt Nam,15.882878,108.32392,
Eden Star Saigon Hotel,https://www.tripadvisor.com.vn/Hotel_Review-g293925-d3673303-Reviews-Eden_Star_Saigon_Hotel-Ho_Chi_Minh_City.html,ok_jsonld,4.2,2297.0,2052632.0,5552632.0,3802632.0,"38 Bùi Thị Xuân Ben Thanh Ward, District 1",Thành phố Hồ Chí Minh,Việt Nam,10.771725,106.69018,
Silverland Mây Hotel,https://www.tripadvisor.com.vn/Hotel_Review-g293925-d26244341-Reviews-Silverland_May_Hotel-Ho_Chi_Minh_City.html,ok_jsonld,4.9,1189.0,3000000.0,6947368.0,4973684.0,"28 - 30 Thi Sách Ben Nghe Ward, District 1",Thành phố Hồ Chí Minh,Việt Nam,10.779111,106.70398,
New World Saigon Hotel,https://www.tripadvisor.com.vn/Hotel_Review-g293925-d302784-Reviews-New_World_Saigon_Hotel-Ho_Chi_Minh_City.html,ok_jsonld,4.5,4256.0,3894737.0,8210526.0,6052631.5,76 Lê Lai Phường Bến Thành,Thành phố Hồ Chí Minh,Việt Nam,10.770873,106.69431,
Hotel Grand Saigon,https://www.tripadvisor.com.vn/Hotel_Review-g293925-d302751-Reviews-Hotel_Grand_Saigon-Ho_Chi_Minh_City.html,ok_jsonld,4.1,2975.0,3026316.0,5315789.0,4171052.5,"8 Dong Khoi Street Ben Nghe, Quận 1",Thành phố Hồ Chí Minh,Việt Nam,10.774224,106.705345,
The Myst Dong Khoi,https://www.tripadvisor.com.vn/Hotel_Review-g293925-d11928570-Reviews-The_Myst_Dong_Khoi-Ho_Chi_Minh_City.html,ok_jsonld,4.7,2449.0,4578947.0,11342105.0,7960526.0,6–8 Hồ Huấn Nghiệp Phường Sài Gòn,Thành phố Hồ Chí Minh,Việt Nam,10.774775,106.705444,
Khách Sạn Mường Thanh Grand Sài Gòn Centre,https://www.tripadvisor.com.vn/Hotel_Review-g293925-d8837110-Reviews-Muong_Thanh_Grand_Saigon_Centre_Hotel-Ho_Chi_Minh_City.html,ok_jsonld,4.4,668.0,1789474.0,3421053.0,2605263.5,8A Mạc Đĩnh Chi Sai Gon Ward,Thành phố Hồ Chí Minh,Việt Nam,10.784186,106.70052,
Hôtel Des Arts Saigon - Mgallery,https://www.tripadvisor.com.vn/Hotel_Review-g293925-d8142973-Reviews-Hotel_Des_Arts_Saigon_Mgallery-Ho_Chi_Minh_City.html,ok_jsonld,4.7,2507.0,4894737.0,10105263.0,7500000.0,76 78 Nguyen Thi Minh Khai St District 3,Thành phố Hồ Chí Minh,Việt Nam,10.782393,106.69729,
Pullman Saigon Centre,https://www.tripadvisor.com.vn/Hotel_Review-g293925-d4456285-Reviews-Pullman_Saigon_Centre-Ho_Chi_Minh_City.html,ok_jsonld,4.6,3443.0,3552632.0,7184211.0,5368421.5,148 Tran Hung Dao Boulevard District 1,Thành phố Hồ Chí Minh,Việt Nam,10.764342,106.691666,
M Village Hotel Ton That Dam,https://www.tripadvisor.com.vn/Hotel_Review-g293925-d26503691-Reviews-M_Village_Hotel_Ton_That_Dam-Ho_Chi_Minh_City.html,ok_jsonld,4.8,69.0,1815789.0,4052632.0,2934210.5,"129-131 Ton That Dam Ben Nghe Ward, District 1",Thành phố Hồ Chí Minh,Việt Nam,10.772422,106.70253,
M Hotel Saigon,https://www.tripadvisor.com.vn/Hotel_Review-g293925-d15618314-Reviews-M_Hotel_Saigon-Ho_Chi_Minh_City.html,ok_jsonld,4.6,270.0,2236842.0,6710526.0,4473684.0,39 Ton That Thiep Street Saigon Ward,Thành phố Hồ Chí Minh,Việt Nam,10.773197,106.70185,
Cochin Zen Hotel,https://www.tripadvisor.com.vn/Hotel_Review-g293925-d954054-Reviews-Cochin_Zen_Hotel-Ho_Chi_Minh_City.html,ok_jsonld,4.0,85.0,1684211.0,4315789.0,3000000.0,46-46 Bis Thủ Khoa Huân,Thành phố Hồ Chí Minh,Việt Nam,10.77454,106.6967,
Winsuites Saigon Hotel,https://www.tripadvisor.com.vn/Hotel_Review-g293925-d17602281-Reviews-Winsuites_Saigon_Hotel-Ho_Chi_Minh_City.html,ok_jsonld,4.1,154.0,2052632.0,7342105.0,4697368.5,"28-30-32 Le Lai Street Phường Bến Thành, Quận 1",Thành phố Hồ Chí Minh,Việt Nam,10.771505,106.69711,
Khách sạn Caravelle Sài Gòn,https://www.tripadvisor.com.vn/Hotel_Review-g293925-d306255-Reviews-Caravelle_Saigon-Ho_Chi_Minh_City.html,ok_jsonld,4.6,1535.0,4157895.0,7315789.0,5736842.0,"19-23 Lam Son Square Bến Nghé, District 1",Thành phố Hồ Chí Minh,Việt Nam,10.776261,106.70361,
GK Central Hotel,https://www.tripadvisor.com.vn/Hotel_Review-g293925-d5960547-Reviews-GK_Central_Hotel-Ho_Chi_Minh_City.html,ok_jsonld,4.1,804.0,1052632.0,2289474.0,1671053.0,"94-92, Ly Tu Trong Street, Ben Thanh Ward District 1",Thành phố Hồ Chí Minh,Việt Nam,10.774302,106.6974,
Liberty Central Saigon Riverside Hotel,https://www.tripadvisor.com.vn/Hotel_Review-g293925-d4474103-Reviews-Liberty_Central_Saigon_Riverside_Hotel-Ho_Chi_Minh_City.html,ok_jsonld,4.5,3475.0,2342105.0,5342105.0,3842105.0,"17 Ton Duc Thang Street, Dist 1",Thành phố Hồ Chí Minh,Việt Nam,10.774111,106.70621,
Sanouva Saigon Hotel,https://www.tripadvisor.com.vn/Hotel_Review-g293925-d1444447-Reviews-Sanouva_Saigon_Hotel-Ho_Chi_Minh_City.html,ok_jsonld,4.2,1933.0,1052632.0,3078947.0,2065789.5,"175 Ly Tu Trong Street Ben Thanh Ward, District 1",Thành phố Hồ Chí Minh,Việt Nam,10.773314,106.69627,
EEA Central Saigon Hotel,https://www.tripadvisor.com.vn/Hotel_Review-g293925-d32967055-Reviews-EEA_Central_Saigon_Hotel-Ho_Chi_Minh_City.html,ok_jsonld,4.5,2.0,736842.0,2078947.0,1407894.5,149 Calmette,Thành phố Hồ Chí Minh,Việt Nam,10.76904,106.69819,
The Luxe Hotel,https://www.tripadvisor.com.vn/Hotel_Review-g293925-d3946991-Reviews-The_Luxe_Hotel-Ho_Chi_Minh_City.html,ok_jsonld,4.9,14.0,1052632.0,8947368.0,5000000.0,"261 - 265 đường Lê Thánh Tôn, Phường Bến Thành, Quận 1, Thành phố Hồ Chí Minh",Thành phố Hồ Chí Minh,Việt Nam,10.771879,106.69569,
Royal Hotel Saigon,https://www.tripadvisor.com.vn/Hotel_Review-g293925-d306232-Reviews-Royal_Hotel_Saigon-Ho_Chi_Minh_City.html,ok_jsonld,4.0,821.0,1947368.0,7473684.0,4710526.0,133 Nguyen Hue Blvd,Thành phố Hồ Chí Minh,Việt Nam,10.774661,106.702545,
Khách sạn Viễn Đông,https://www.tripadvisor.com.vn/Hotel_Review-g293925-d456985-Reviews-Vien_Dong_Hotel-Ho_Chi_Minh_City.html,ok_jsonld,3.8,580.0,1026316.0,2026316.0,1526316.0,275A Phạm Ngũ Lão Phường Bến Thành,Thành phố Hồ Chí Minh,Việt Nam,10.767978,106.692024,
Alagon D'antique Hotel & Spa,https://www.tripadvisor.com.vn/Hotel_Review-g293925-d10150919-Reviews-Alagon_D_antique_Hotel_Spa-Ho_Chi_Minh_City.html,ok_jsonld,4.6,1778.0,1947368.0,6078947.0,4013157.5,"301-303 Ly Tu Trọng Ben Thanh Ward, District 1",Thành phố Hồ Chí Minh,Việt Nam,10.771743,106.694,
Khách Sạn C Central,https://www.tripadvisor.com.vn/Hotel_Review-g293925-d592744-Reviews-C_Central_Hotel-Ho_Chi_Minh_City.html,ok_jsonld,4.6,1172.0,473684.0,2131579.0,1302631.5,216 Đ. Đề Thám,Thành phố Hồ Chí Minh,Việt Nam,10.767573,106.69401,
Khách sạn Oscar Sài Gòn,https://www.tripadvisor.com.vn/Hotel_Review-g293925-d302747-Reviews-Oscar_Saigon_Hotel-Ho_Chi_Minh_City.html,ok_jsonld,3.4,539.0,1105263.0,3526316.0,2315789.5,68A Nguyễn Huệ Quận 1,Thành phố Hồ Chí Minh,Việt Nam,10.774754,106.70335,
Me Saigon Boutique Hotel,https://www.tripadvisor.com.vn/Hotel_Review-g293925-d32709657-Reviews-Me_Saigon_Boutique_Hotel-Ho_Chi_Minh_City.html,ok_jsonld,4.7,69.0,2368421.0,5000000.0,3684210.5,280 Lê Thánh Tôn,Thành phố Hồ Chí Minh,Việt Nam,10.771798,106.6954,
Khách sạn Sheraton Saigon Grand Opera,https://www.tripadvisor.com.vn/Hotel_Review-g293925-d304523-Reviews-Sheraton_Saigon_Grand_Opera_Hotel-Ho_Chi_Minh_City.html,ok_jsonld,4.5,3589.0,5973684.0,9236842.0,7605263.0,"88 Dong Khoi Saigon Ward, Bến Nghé, Quận 1",Thành phố Hồ Chí Minh,Việt Nam,10.775861,106.70394,
Khách sạn Asian Ruby Center Point,https://www.tripadvisor.com.vn/Hotel_Review-g293925-d9466010-Reviews-Asian_Ruby_Center_Point_Hotel-Ho_Chi_Minh_City.html,ok_jsonld,3.5,151.0,552632.0,2394737.0,1473684.5,"46 - 48 Mạc Thị Bưởi, Q.1 District 1",Thành phố Hồ Chí Minh,Việt Nam,10.775458,106.70497,
Garden View Court,https://www.tripadvisor.com.vn/Hotel_Review-g293925-d3794012-Reviews-Garden_View_Court-Ho_Chi_Minh_City.html,ok_jsonld,4.3,72.0,2131579.0,7263158.0,4697368.5,"101 Nguyen Du Street Ward Ben Thanh,",Thành phố Hồ Chí Minh,Việt Nam,10.775063,106.69665,
El Pino Realm - Managed By CityHouse,https://www.tripadvisor.com.vn/Hotel_Review-g293925-d33026020-Reviews-El_Pino_Realm_Managed_By_CityHouse-Ho_Chi_Minh_City.html,ok_jsonld,5.0,22.0,1736842.0,5736842.0,3736842.0,"70-72-74 Pho Duc Chinh Phuong Nguyen Thai Bình, Quan 1",Thành phố Hồ Chí Minh,Việt Nam,10.770256,106.699524,
Hilton Saigon,https://www.tripadvisor.com.vn/Hotel_Review-g293925-d27101967-Reviews-Hilton_Saigon-Ho_Chi_Minh_City.html,ok_jsonld,4.8,423.0,5315789.0,10026316.0,7671052.5,"11 Công Trường Mê Linh Bến Nghé, Quận 1",Thành phố Hồ Chí Minh,Việt Nam,10.775048,106.70566,
Adora Art Hotel,https://www.tripadvisor.com.vn/Hotel_Review-g293925-d4082472-Reviews-Adora_Art_Hotel-Ho_Chi_Minh_City.html,ok_jsonld,3.8,99.0,1342105.0,4736842.0,3039473.5,"189-191 Ly Tu Trong Ben Thanh Ward, District 1",Thành phố Hồ Chí Minh,Việt Nam,10.773135,106.69608,
JW Marriott Hotel & Suites Saigon,https://www.tripadvisor.com.vn/Hotel_Review-g293925-d28257553-Reviews-JW_Marriott_Hotel_Suites_Saigon-Ho_Chi_Minh_City.html,ok_jsonld,4.4,137.0,6184211.0,9289474.0,7736842.5,"Corner Hai Ba Trung Street Le Duan Boulevard, Ben Nghe Ward, District 1",Thành phố Hồ Chí Minh,Việt Nam,10.780962,106.70056,
HA Long Sea Hotel,https://www.tripadvisor.com.vn/Hotel_Review-g14776299-d18341458-Reviews-HA_Long_Sea_Hotel-Ha_Long_City_H_Long_Bay_Quang_Ninh_Province.html,ok_jsonld,0.0,0.0,,,,Lv 1.11 - 1.12 Pho Loc Vung,Ha Long City,Việt Nam,20.9605,106.99306,
TCL International Hotel,https://www.tripadvisor.com.vn/Hotel_Review-g297413-d7006280-Reviews-TCL_International_Hotel-Huizhou_Guangdong.html,ok_jsonld,4.4,10.0,,,,"Building 2 TCL Science and Technology Building, Huifeng 3rd Road, Zhongkai High-teach Zone, Huicheng District",Huizhou,Trung Quốc,23.029272,114.35368,
KHÁCH SẠN GRAND VIEW PALACE HẠ LONG,https://www.tripadvisor.com.vn/Hotel_Review-g14776299-d23463967-Reviews-Grand_View_Palace_Ha_Long_Hotel-Ha_Long_City_H_Long_Bay_Quang_Ninh_Province.html,ok_jsonld,5.0,2.0,947368.0,1394737.0,1171052.5,"Tổ 6 Khu 6 P. Yết Kiêu To 6, Khu 6, Yet Kieu Ward",Ha Long City,Việt Nam,20.96337,107.072815,
Khách sạn Hà Nội Stay,https://www.tripadvisor.com.vn/Hotel_Review-g293924-d1760394-Reviews-Hanoi_Stay_Hotel-Hanoi.html,ok_jsonld,4.1,34.0,,,,16C Trung Yen - Dinh Liet,,Việt Nam,0.0,0.0,
Melia Kuala Lumpur,https://www.tripadvisor.com.vn/Hotel_Review-g298570-d302628-Reviews-Melia_Kuala_Lumpur-Kuala_Lumpur_Wilayah_Persekutuan.html,ok_jsonld,3.9,3039.0,2026316.0,5394737.0,3710526.5,16 Jalan Imbi,Kuala Lumpur,Malaysia,3.143226,101.70983,
Villa Hoa Su Frangipani,https://www.tripadvisor.com.vn/Hotel_Review-g298082-d1776062-Reviews-Villa_Hoa_Su_Frangipani-Hoi_An_Quang_Nam_Province.html,ok_jsonld,4.4,200.0,,,,"Hamlet No 5, Cam Thanh Ward Hoian City, Quang Nam Province",,Việt Nam,15.886181,108.35311,
Mandala Hotel & Suites Bac Giang,https://www.tripadvisor.com.vn/Hotel_Review-g6776104-d23700157-Reviews-Mandala_Hotel_Suites_Bac_Giang-Bac_Giang_Bac_Giang_Province.html,ok_jsonld,4.9,24.0,1026316.0,5447368.0,3236842.0,55 Nguyen Van Cu,Bac Giang,Việt Nam,21.27671,106.19555,
TTC Van Phong Bay Resort,https://www.tripadvisor.com.vn/Hotel_Review-g23392685-d25461552-Reviews-TTC_Van_Phong_Bay_Resort-Ninh_Hai_Ninh_Hoa_Khanh_Hoa_Province.html,ok_jsonld,4.9,257.0,1263158.0,3315789.0,2289473.5,Dong Cat,Ninh Hai,Việt Nam,12.55286,109.22965,
The Hill Homestay,https://www.tripadvisor.com.vn/Hotel_Review-g2062759-d21301860-Reviews-The_Hill_Homestay-Bao_Loc_Lam_Dong_Province.html,ok_jsonld,0.0,0.0,,,,"196C Nguyen Van Cu, Loc Thanh",Bảo Lộc,Việt Nam,11.545302,107.82947,
MES Hotel,https://www.tripadvisor.com.vn/Hotel_Review-g17522097-d18206685-Reviews-MES_Hotel-Ninh_Kieu_Mekong_Delta.html,ok_jsonld,0.0,0.0,263158.0,394737.0,328947.5,"18 Đ. Tân Trào Tân An, Ninh Kiều",Ninh Kieu,Việt Nam,10.03335,105.78752,
The Galaxy Home Apartment,https://www.tripadvisor.com.vn/Hotel_Review-g293924-d19650003-Reviews-The_Galaxy_Home_Apartment-Hanoi.html,ok_jsonld,5.0,7.0,736842.0,1236842.0,986842.0,36C Dịch Vọng Hậu,,Việt Nam,21.033106,105.78757,
Senia Nha Trang Hotel,https://www.tripadvisor.com.vn/Hotel_Review-g293928-d19700691-Reviews-Senia_Nha_Trang_Hotel-Nha_Trang_Khanh_Hoa_Province.html,ok_jsonld,4.1,8.0,368421.0,710526.0,539473.5,10 Củ Chi,Nha Trang,Việt Nam,12.280121,109.202156,
Navutu Dreams Resort & Wellness Retreat,https://www.tripadvisor.com.vn/Hotel_Review-g297390-d2657581-Reviews-Navutu_Dreams_Resort_Wellness_Retreat-Siem_Reap_Siem_Reap_Province.html,ok_jsonld,4.8,1979.0,1578947.0,4710526.0,3144736.5,"Navutu Road Tropeang Treng Village, Sala Komreuk Commune",,Campuchia,13.34163,103.87049,
Halise Home & Retreat Ninh Binh,https://www.tripadvisor.com.vn/Hotel_Review-g15031696-d33104147-Reviews-Halise_Home_Retreat_Ninh_Binh-Ninh_Thang_Hoa_Lu_District_Ninh_Binh_Province.html,ok_jsonld,4.4,5.0,921053.0,2026316.0,1473684.5,Thôn Khả Lương Thung Chẽ Bèo,Ninh Thang,Việt Nam,20.227192,105.941376,
Stay Hue Hotel,https://www.tripadvisor.com.vn/Hotel_Review-g293926-d26529062-Reviews-Stay_Hue_Hotel-Hue_Thua_Thien_Hue_Province.html,ok_jsonld,0.0,0.0,368421.0,605263.0,486842.0,7 Nguyễn Công Trứ,Huế,Việt Nam,16.472153,107.5954,
Silverland Sil Hotel,https://www.tripadvisor.com.vn/Hotel_Review-g293925-d2299912-Reviews-Silverland_Sil_Hotel-Ho_Chi_Minh_City.html,ok_jsonld,4.9,330.0,1973684.0,4236842.0,3105263.0,"20 - 22 - 24 Thái Văn Lung Bến Nghé, Quận 1",Thành phố Hồ Chí Minh,Việt Nam,10.780104,106.70387,
Eastin Grand Hotel Saigon,https://www.tripadvisor.com.vn/Hotel_Review-g293925-d300810-Reviews-Eastin_Grand_Hotel_Saigon-Ho_Chi_Minh_City.html,ok_jsonld,4.3,1232.0,2105263.0,3763158.0,2934210.5,253 Nguyen Van Troi Street Ward 10,Thành phố Hồ Chí Minh,Việt Nam,-24.338877,27.806965,
Celine Living Central Suites and Spa,https://www.tripadvisor.com.vn/Hotel_Review-g293925-d26566207-Reviews-Celine_Living_Central_Suites_and_Spa-Ho_Chi_Minh_City.html,ok_jsonld,5.0,9.0,1078947.0,3368421.0,2223684.0,"231 Nguyen Dinh Chieu Phuong 5, Quan 3",Thành phố Hồ Chí Minh,Việt Nam,10.773685,106.68583,
Holiday Inn & Suites Saigon Airport By IHG,https://www.tripadvisor.com.vn/Hotel_Review-g293925-d15808714-Reviews-Holiday_Inn_Suites_Saigon_Airport_By_IHG-Ho_Chi_Minh_City.html,ok_jsonld,4.9,792.0,2473684.0,4026316.0,3250000.0,18E Cộng Hòa Tan Son Nhat Ward,Thành phố Hồ Chí Minh,Việt Nam,10.801649,106.65516,
Ace Hotel Ben Thanh,https://www.tripadvisor.com.vn/Hotel_Review-g293925-d12245943-Reviews-Ace_Hotel_Ben_Thanh-Ho_Chi_Minh_City.html,ok_jsonld,3.4,61.0,394737.0,894737.0,644737.0,"100 Ly Tu Trong Ben Thanh Ward, District 1",Thành phố Hồ Chí Minh,Việt Nam,10.774229,106.69729,
GRAND HOTEL du LAC Boutique Saigon,https://www.tripadvisor.com.vn/Hotel_Review-g293925-d33376971-Reviews-GRAND_HOTEL_du_LAC_Boutique_Saigon-Ho_Chi_Minh_City.html,ok_jsonld,5.0,158.0,3131579.0,7184211.0,5157895.0,40-42 Đ. Phan Bội Châu Ben Thanh Ward,Thành phố Hồ Chí Minh,Việt Nam,10.773273,106.698555,
Kin Hotel Thai Van Lung,https://www.tripadvisor.com.vn/Hotel_Review-g293925-d28206128-Reviews-Kin_Hotel_Thai_Van_Lung-Ho_Chi_Minh_City.html,ok_jsonld,4.9,35.0,2421053.0,4657895.0,3539474.0,"36-38 Thai Van Lung Phường Bến Nghé, Quận 1",Thành phố Hồ Chí Minh,Việt Nam,10.78029,106.70356,
Silverland Ben Thanh,https://www.tripadvisor.com.vn/Hotel_Review-g293925-d26709527-Reviews-Silverland_Ben_Thanh-Ho_Chi_Minh_City.html,ok_jsonld,4.9,625.0,3184211.0,8184211.0,5684211.0,14 - 16 Le Lai Street Ben Thanh Ward,Thành phố Hồ Chí Minh,Việt Nam,10.771608,106.697395,
Silverland Yen Hotel,https://www.tripadvisor.com.vn/Hotel_Review-g293925-d1557303-Reviews-Silverland_Yen_Hotel-Ho_Chi_Minh_City.html,ok_jsonld,4.8,1752.0,2947368.0,5210526.0,4078947.0,73-75 Thu Khoa Huan Street,Thành phố Hồ Chí Minh,Việt Nam,10.77473,106.696205,
Cicilia City Hotel Saigon Center,https://www.tripadvisor.com.vn/Hotel_Review-g293925-d14100690-Reviews-Cicilia_City_Hotel_Saigon_Center-Ho_Chi_Minh_City.html,ok_jsonld,4.0,175.0,1105263.0,90105264.0,45605263.5,12D Cách Mạng Tháng 8,Thành phố Hồ Chí Minh,Việt Nam,10.772,106.6929,
Express By M Village Nguyen Du,https://www.tripadvisor.com.vn/Hotel_Review-g293925-d26106125-Reviews-Express_By_M_Village_Nguyen_Du-Ho_Chi_Minh_City.html,ok_jsonld,4.5,4.0,921053.0,2157895.0,1539474.0,157 Đ. Nguyễn Du,Thành phố Hồ Chí Minh,Việt Nam,10.77225,106.69294,
Park Hyatt Saigon,https://www.tripadvisor.com.vn/Hotel_Review-g293925-d577218-Reviews-Park_Hyatt_Saigon-Ho_Chi_Minh_City.html,ok_jsonld,4.7,4373.0,7052632.0,18500000.0,12776316.0,2 Công trường Lam Sơn,Thành phố Hồ Chí Minh,Việt Nam,10.77777,106.70338,
Khách sạn Paragon Sài Gòn,https://www.tripadvisor.com.vn/Hotel_Review-g293925-d637378-Reviews-Paragon_Saigon_Hotel-Ho_Chi_Minh_City.html,ok_jsonld,4.0,1070.0,2000000.0,5421053.0,3710526.5,"22-24 Thi Sách, P. Bến Nghé, Q.1",Thành phố Hồ Chí Minh,Việt Nam,10.778885,106.704285,
The Reverie Saigon Residential Suites,https://www.tripadvisor.com.vn/Hotel_Review-g293925-d8768688-Reviews-The_Reverie_Saigon_Residential_Suites-Ho_Chi_Minh_City.html,ok_jsonld,4.8,31.0,6315789.0,15842105.0,11078947.0,"57-69F Đồng Khởi, Q.1",Thành phố Hồ Chí Minh,Việt Nam,10.774,106.70471,
Hotel Equatorial Ho Chi Minh City,https://www.tripadvisor.com.vn/Hotel_Review-g293925-d301700-Reviews-Hotel_Equatorial_Ho_Chi_Minh_City-Ho_Chi_Minh_City.html,ok_jsonld,4.5,2463.0,2342105.0,4394737.0,3368421.0,242 Tran Binh Trong St. Cho Quan Ward,Thành phố Hồ Chí Minh,Việt Nam,10.763349,106.679054,
Happy Life Grand Hotel & Sky Bar,https://www.tripadvisor.com.vn/Hotel_Review-g293925-d15124951-Reviews-Happy_Life_Grand_Hotel_Sky_Bar-Ho_Chi_Minh_City.html,ok_jsonld,4.3,490.0,1842105.0,6157895.0,4000000.0,102 - 104 - 106 Le Thi Hong Gam,Thành phố Hồ Chí Minh,Việt Nam,10.769168,106.69767,
Alagon Saigon Hotel & Spa,https://www.tripadvisor.com.vn/Hotel_Review-g293925-d3795237-Reviews-Alagon_Saigon_Hotel_Spa-Ho_Chi_Minh_City.html,ok_jsonld,4.3,1604.0,1526316.0,3815789.0,2671052.5,"301-303 Ly Tu Trong Street Ben Thanh Ward, District 1",Thành phố Hồ Chí Minh,Việt Nam,10.771754,106.6943,
Signature by M Village Hai Ba Trung,https://www.tripadvisor.com.vn/Hotel_Review-g293925-d26813236-Reviews-Signature_by_M_Village_Hai_Ba_Trung-Ho_Chi_Minh_City.html,ok_jsonld,5.0,217.0,2710526.0,5921053.0,4315789.5,"74 Hai Bà Trưng Phường Bến Nghé, Quận 1",Thành phố Hồ Chí Minh,Việt Nam,10.778244,106.70362,
"JW Marriott Hotel & Suites Saigon, The Apartments",https://www.tripadvisor.com.vn/Hotel_Review-g293925-d1465027-Reviews-JW_Marriott_Hotel_Suites_Saigon_The_Apartments-Ho_Chi_Minh_City.html,ok_jsonld,4.7,3497.0,6315789.0,9657895.0,7986842.0,"Corner Nguyen Du Street & Le Van Huu Street, Saigon Ward Ben Nghe Ward, District 01",Thành phố Hồ Chí Minh,Việt Nam,10.781473,106.70138,
Villa Sông Saigon,https://www.tripadvisor.com.vn/Hotel_Review-g293925-d1554688-Reviews-Villa_Song_Saigon-Ho_Chi_Minh_City.html,ok_jsonld,4.8,1281.0,3526316.0,7184211.0,5355263.5,"197/2 Nguyễn Văn Hưởng, Q.2",Thành phố Hồ Chí Minh,Việt Nam,10.815744,106.73391,
Khách Sạn & Căn hộ Oakwood Sài Gòn,https://www.tripadvisor.com.vn/Hotel_Review-g293925-d24983800-Reviews-Oakwood_Hotel_Apartments_Saigon-Ho_Chi_Minh_City.html,ok_jsonld,4.9,106.0,1736842.0,3868421.0,2802631.5,330A - 330B Đường Ung Văn Khiêm 330a – 330b Ung Văn Khiêm Phường 25,Thành phố Hồ Chí Minh,Việt Nam,10.801316,106.72295,
Sofitel Saigon Plaza,https://www.tripadvisor.com.vn/Hotel_Review-g293925-d300325-Reviews-Sofitel_Saigon_Plaza-Ho_Chi_Minh_City.html,ok_jsonld,4.5,3683.0,3947368.0,8578947.0,6263157.5,17 Le Duan Ben Nghe Ward,Thành phố Hồ Chí Minh,Việt Nam,10.784085,106.70257,
Somerset Chancellor Court Ho Chi Minh City,https://www.tripadvisor.com.vn/Hotel_Review-g293925-d627072-Reviews-Somerset_Chancellor_Court_Ho_Chi_Minh_City-Ho_Chi_Minh_City.html,ok_jsonld,4.4,636.0,2868421.0,5921053.0,4394737.0,21 - 23 Nguyễn Thị Minh Khai Street District 1,Thành phố Hồ Chí Minh,Việt Nam,10.784129,106.699615,
Le Méridien Saigon,https://www.tripadvisor.com.vn/Hotel_Review-g293925-d7856034-Reviews-Le_Meridien_Saigon-Ho_Chi_Minh_City.html,ok_jsonld,4.7,2840.0,4815789.0,8605263.0,6710526.0,3C Ton Duc Thang Street Sai Gon Ward,Thành phố Hồ Chí Minh,Việt Nam,10.7798,106.70738,
Paradise Saigon Boutique Hotel,https://www.tripadvisor.com.vn/Hotel_Review-g293925-d941162-Reviews-Paradise_Saigon_Boutique_Hotel-Ho_Chi_Minh_City.html,ok_jsonld,4.1,675.0,2184211.0,4289474.0,3236842.5,"288 Lê Thánh Tôn Ben Thanh Ward, District 1",Thành phố Hồ Chí Minh,Việt Nam,10.771524,106.69493,
Amanaki Sài Gòn Boutique,https://www.tripadvisor.com.vn/Hotel_Review-g293925-d22956435-Reviews-Amanaki_Sai_Gon_Boutique-Ho_Chi_Minh_City.html,ok_jsonld,4.6,84.0,2105263.0,3710526.0,2907894.5,65 Hồ Tùng Mậu,Thành phố Hồ Chí Minh,Việt Nam,10.772845,106.70396,
The Airport Hotel,https://www.tripadvisor.com.vn/Hotel_Review-g293925-d9765615-Reviews-The_Airport_Hotel-Ho_Chi_Minh_City.html,ok_jsonld,4.0,230.0,526316.0,868421.0,697368.5,"11 Cuu Long Ward 2, Tan Binh District",Thành phố Hồ Chí Minh,Việt Nam,10.809878,106.665726,
A25 Hotel - Lê Thị Hồng Gấm,https://www.tripadvisor.com.vn/Hotel_Review-g293925-d13121830-Reviews-A25_Hotel_Le_Thi_Hong_Gam-Ho_Chi_Minh_City.html,ok_jsonld,3.6,144.0,1105263.0,1684211.0,1394737.0,"55/29 Lê Thị Hồng Gấm, Phường Nguyễn Thái Bình, Quận 1",Thành phố Hồ Chí Minh,Việt Nam,10.768374,106.69829,
Thanh Binh 2 Hotel,https://www.tripadvisor.com.vn/Hotel_Review-g293928-d6841185-Reviews-Thanh_Binh_2_Hotel-Nha_Trang_Khanh_Hoa_Province.html,ok_jsonld,4.2,35.0,315789.0,684211.0,500000.0,10B Pham Van Dong,Nha Trang,Việt Nam,12.275776,109.20193,
Premier Village Phu Quoc Resort - Managed By Accor,https://www.tripadvisor.com.vn/Hotel_Review-g12520037-d13376509-Reviews-Premier_Village_Phu_Quoc_Resort_Managed_By_Accor-An_Thoi_Phu_Quoc_Island_Kien_Giang.html,ok_jsonld,4.9,2925.0,11736842.0,50157896.0,30947369.0,Mũi Ông Đội An Thới,An Thoi,Việt Nam,10.015984,104.03922,
Thiên Tân Hotel,https://www.tripadvisor.com.vn/Hotel_Review-g1024873-d4847369-Reviews-Thien_Tan_Hotel-Con_Son_Con_Dao_Islands_Ba_Ria_Vung_Tau_Province.html,ok_jsonld,2.2,18.0,578947.0,1210526.0,894736.5,4 Nguyễn Đức Thuận,,Việt Nam,8.679861,106.60296,
NYT Home Cau Giay,https://www.tripadvisor.com.vn/Hotel_Review-g293924-d16731130-Reviews-NYT_Home_Cau_Giay-Hanoi.html,ok_jsonld,1.0,1.0,342105.0,1052632.0,697368.5,"17, Alley 123, Hoang Quoc Viet Street, Cau Giay",,Việt Nam,21.02724,105.83214,
Thanh Lich Guesthouse,https://www.tripadvisor.com.vn/Hotel_Review-g651661-d12236581-Reviews-Thanh_Lich_Guesthouse-Quang_Ngai_Quang_Ngai_Province.html,ok_jsonld,4.9,56.0,289474.0,368421.0,328947.5,702 Nguyen Van Linh street Truong Quang Trong,Quảng Ngãi,Việt Nam,15.141978,108.799225,
Minh Trang Hotel,https://www.tripadvisor.com.vn/Hotel_Review-g303946-d10445252-Reviews-Minh_Trang_Hotel-Vung_Tau_Ba_Ria_Vung_Tau_Province.html,ok_jsonld,5.0,1.0,,,,153 Phan Chu Trinh,Vũng Tàu,Việt Nam,10.329472,107.08757,
Hương Việt Hotel,https://www.tripadvisor.com.vn/Hotel_Review-g15334266-d28192322-Reviews-Huong_Vi_t_Hotel-Van_Chan_District_Yen_Bai_Province.html,ok_jsonld,0.0,0.0,421053.0,447368.0,434210.5,Văn Hưng,Van Chan District,Việt Nam,21.507513,104.70308,
Chau Long Sapa 2 Hotel,https://www.tripadvisor.com.vn/Hotel_Review-g311304-d7154741-Reviews-Chau_Long_Sapa_2_Hotel-Sapa_Lao_Cai_Province.html,ok_jsonld,4.9,382.0,894737.0,1789474.0,1342105.5,24 Dong Loi,Sapa,Việt Nam,22.332706,103.84228,
Vina Ecolife Lodge,https://www.tripadvisor.com.vn/Hotel_Review-g33734283-d27962604-Reviews-Vina_Ecolife_Lodge-Phu_Le_Ben_Tre_Province_Mekong_Delta.html,ok_jsonld,0.0,0.0,657895.0,763158.0,710526.5,"456hl14, Ấp Phú Thạnh",Phú Lễ,Việt Nam,10.793515,106.62814,
Veligandu Maldives Resort Island,https://www.tripadvisor.com.vn/Hotel_Review-g3612469-d316959-Reviews-Veligandu_Maldives_Resort_Island-Veligandu.html,ok_jsonld,4.9,5536.0,15105263.0,56973684.0,36039473.5,North Ari Atoll,,Việt Nam,4.2995,73.011,
Hong Yen,https://www.tripadvisor.com.vn/Hotel_Review-g469419-d803619-Reviews-Hong_Yen-Rach_Gia_Kien_Giang_Province.html,ok_jsonld,3.3,6.0,,,,259-261 Mac Cuu,Rạch Giá,Việt Nam,10.01451,105.08497,
Hiep Hoa Hotel,https://www.tripadvisor.com.vn/Hotel_Review-g311303-d20878810-Reviews-Hiep_Hoa_Hotel-Chau_Doc_An_Giang_Province.html,ok_jsonld,0.0,0.0,657895.0,657895.0,657895.0,"Duong Tan Lo Kieu Luong, Phuong Nui Sam",Châu Đốc,Việt Nam,10.682239,105.082466,
HUALUXE Hotels and Resorts Kunming by IHG,https://www.tripadvisor.com.vn/Hotel_Review-g298558-d12030512-Reviews-HUALUXE_Hotels_and_Resorts_Kunming_by_IHG-Kunming_Yunnan.html,ok_jsonld,5.0,2586.0,2500000.0,3973684.0,3236842.0,"No.5 West Hongta Road, Xishan District",Côn Minh,Trung Quốc,24.972488,102.66328,
Viet Home - Door Step To Hoan Kiem Lake,https://www.tripadvisor.com.vn/Hotel_Review-g293924-d21019626-Reviews-Viet_Home_Door_Step_To_Hoan_Kiem_Lake-Hanoi.html,ok_jsonld,0.0,0.0,1026316.0,1236842.0,1131579.0,23c Hang Hanh,,Việt Nam,21.03141,105.85044,
Hotel Budapest,https://www.tripadvisor.com.vn/Hotel_Review-g12866445-d17518856-Reviews-Hotel_Budapest-Viet_Tri_Phu_Tho_Province.html,ok_jsonld,0.0,0.0,,,,To 1 - Khu 1 - Van Phu,Viet Tri,Việt Nam,21.34252,105.36019,
La Paix Sài Gòn - Boutique Hotel,https://www.tripadvisor.com.vn/Hotel_Review-g293925-d26259476-Reviews-La_Paix_Sai_Gon_Boutique_Hotel-Ho_Chi_Minh_City.html,ok_jsonld,4.4,10.0,657895.0,1421053.0,1039474.0,59 Hai Bà Trưng,Thành phố Hồ Chí Minh,Việt Nam,10.776724,106.704636,
Bach Suites Saigon,https://www.tripadvisor.com.vn/Hotel_Review-g293925-d13812195-Reviews-Bach_Suites_Saigon-Ho_Chi_Minh_City.html,ok_jsonld,4.5,109.0,3552632.0,5736842.0,4644737.0,10A Pham Ngoc Thach District 3,Thành phố Hồ Chí Minh,Việt Nam,10.782479,106.69649,
Novotel Saigon Centre,https://www.tripadvisor.com.vn/Hotel_Review-g293925-d3245017-Reviews-Novotel_Saigon_Centre-Ho_Chi_Minh_City.html,ok_jsonld,4.3,2298.0,2684211.0,5763158.0,4223684.5,167 Hai Ba Trung District 3,Thành phố Hồ Chí Minh,Việt Nam,10.784287,106.696,
Silverland Sakyo Hotel,https://www.tripadvisor.com.vn/Hotel_Review-g293925-d6628672-Reviews-Silverland_Sakyo_Hotel-Ho_Chi_Minh_City.html,ok_jsonld,4.6,1541.0,2605263.0,5921053.0,4263158.0,10A Le Thanh Ton Street,Thành phố Hồ Chí Minh,Việt Nam,10.781532,106.70539,
The Concept Hotel HCMC - City Center,https://www.tripadvisor.com.vn/Hotel_Review-g293925-d28139853-Reviews-The_Concept_Hotel_HCMC_City_Center-Ho_Chi_Minh_City.html,blocked,0.0,0.0,,,,,,Việt Nam,0.0,0.0,
Adora Hotel,https://www.tripadvisor.com.vn/Hotel_Review-g293925-d1736777-Reviews-Adora_Hotel-Ho_Chi_Minh_City.html,ok_jsonld,3.6,133.0,1078947.0,5342105.0,3210526.0,42 - 44 Thủ Khoa Huân Quận 1,Thành phố Hồ Chí Minh,Việt Nam,10.774378,106.69686,
White Lotus - Boutique Hotel,https://www.tripadvisor.com.vn/Hotel_Review-g293925-d26250810-Reviews-White_Lotus_Boutique_Hotel-Ho_Chi_Minh_City.html,ok_jsonld,5.0,5.0,868421.0,2552632.0,1710526.5,76E/2 Phạm Viết Chánh,Thành phố Hồ Chí Minh,Việt Nam,10.790121,106.711266,
Liberty Hotel Saigon Park View,https://www.tripadvisor.com.vn/Hotel_Review-g293925-d306200-Reviews-Liberty_Hotel_Saigon_Park_View-Ho_Chi_Minh_City.html,ok_jsonld,3.6,744.0,868421.0,1868421.0,1368421.0,265 Phạm Ngũ Lão Street Quận 1,Thành phố Hồ Chí Minh,Việt Nam,10.7686,106.6936,
Lavis 18 Residence,https://www.tripadvisor.com.vn/Hotel_Review-g293925-d11443623-Reviews-Lavis_18_Residence-Ho_Chi_Minh_City.html,ok_jsonld,4.4,83.0,1315789.0,2684211.0,2000000.0,"No.18, Street No.3 Do Thanh Condominium, Ward 4, District 3",Thành phố Hồ Chí Minh,Việt Nam,10.772569,106.68179,
Prague Airport Hotel,https://www.tripadvisor.com.vn/Hotel_Review-g293925-d17808670-Reviews-Prague_Airport_Hotel-Ho_Chi_Minh_City.html,ok_jsonld,4.8,118.0,473684.0,842105.0,657894.5,"157 Bạch Đằng Phường 2, Tân Bình",Thành phố Hồ Chí Minh,Việt Nam,10.81562,106.67464,
Khách Sạn Nesta Sài Gòn Trung Tâm,https://www.tripadvisor.com.vn/Hotel_Review-g293925-d17604661-Reviews-Nesta_Hotel_Saigon-Ho_Chi_Minh_City.html,ok_jsonld,4.3,83.0,1289474.0,2552632.0,1921053.0,34 Thủ Khoa Huân Quận 1,Thành phố Hồ Chí Minh,Việt Nam,10.77414,106.697014,
Alagon City Hotel & Spa,https://www.tripadvisor.com.vn/Hotel_Review-g293925-d3794814-Reviews-Alagon_City_Hotel_Spa-Ho_Chi_Minh_City.html,ok_jsonld,4.0,360.0,1473684.0,3710526.0,2592105.0,"56 - 58 Phạm Hồng Thái Bến Thành, Quận 1",Thành phố Hồ Chí Minh,Việt Nam,10.771195,106.69416,
Căn hộ cao cấp Riverside,https://www.tripadvisor.com.vn/Hotel_Review-g293925-d1821525-Reviews-Riverside_Serviced_Apartments-Ho_Chi_Minh_City.html,ok_jsonld,4.4,267.0,2210526.0,3684211.0,2947368.5,"53, Vo Truong Toan, Thao Dien Ward Thuc Duc City",Thành phố Hồ Chí Minh,Việt Nam,10.807219,106.74654,
Zazz Urban Ho Chi Minh Hotel,https://www.tripadvisor.com.vn/Hotel_Review-g293925-d17439923-Reviews-Zazz_Urban_Ho_Chi_Minh_Hotel-Ho_Chi_Minh_City.html,ok_jsonld,4.6,37.0,1184211.0,1657895.0,1421053.0,"28 Sư Vạn Hạnh Phường 9, Quận 5",Thành phố Hồ Chí Minh,Việt Nam,10.758115,106.673836,
The Junction Hotel Hai Ba Trung,https://www.tripadvisor.com.vn/Hotel_Review-g293925-d13114362-Reviews-The_Junction_Hotel_Hai_Ba_Trung-Ho_Chi_Minh_City.html,ok_jsonld,4.4,23.0,289474.0,473684.0,381579.0,220N Hai Bà Trưng Quận 01,Thành phố Hồ Chí Minh,Việt Nam,10.788524,106.69189,
Saigon Eden Garden Hotel,https://www.tripadvisor.com.vn/Hotel_Review-g293925-d6163837-Reviews-Saigon_Eden_Garden_Hotel-Ho_Chi_Minh_City.html,ok_jsonld,3.3,275.0,657895.0,1421053.0,1039474.0,28/12 Đ. Bùi Viện,Thành phố Hồ Chí Minh,Việt Nam,10.768233,106.6946,
Khách sạn Saigon Europe,https://www.tripadvisor.com.vn/Hotel_Review-g293925-d2282888-Reviews-SaiGon_Europe_Hotel-Ho_Chi_Minh_City.html,ok_jsonld,4.2,602.0,368421.0,1526316.0,947368.5,"207 Đề Thám, P. Phạm Ngũ Lão, Q.1",Thành phố Hồ Chí Minh,Việt Nam,10.767865,106.693634,
Saigon Kiko Hotel,https://www.tripadvisor.com.vn/Hotel_Review-g293925-d23233691-Reviews-Saigon_Kiko_Hotel-Ho_Chi_Minh_City.html,ok_jsonld,3.9,28.0,894737.0,1684211.0,1289474.0,211-213-215 Pham Ngu Lao Street,Thành phố Hồ Chí Minh,Việt Nam,10.768365,106.69263,
New Sunny Hotel,https://www.tripadvisor.com.vn/Hotel_Review-g293925-d3315588-Reviews-New_Sunny_Hotel-Ho_Chi_Minh_City.html,ok_jsonld,4.1,136.0,447368.0,1657895.0,1052631.5,"256 Đề Thám Phường Phạm Ngũ Lão, Quận 1",Thành phố Hồ Chí Minh,Việt Nam,10.767737,106.69389,
Oakwood Residence Saigon,https://www.tripadvisor.com.vn/Hotel_Review-g293925-d13415480-Reviews-Oakwood_Residence_Saigon-Ho_Chi_Minh_City.html,ok_jsonld,4.9,197.0,2500000.0,4394737.0,3447368.5,1056A Nguyễn Văn Linh Tan Phong Ward,Thành phố Hồ Chí Minh,Việt Nam,10.730354,106.70462,
SILA Urban Living,https://www.tripadvisor.com.vn/Hotel_Review-g293925-d10335237-Reviews-SILA_Urban_Living-Ho_Chi_Minh_City.html,ok_jsonld,4.6,298.0,2157895.0,5026316.0,3592105.5,21 Ngo Thoi Nhiem Street District 3,Thành phố Hồ Chí Minh,Việt Nam,10.780969,106.69045,
IPeace Hotel,https://www.tripadvisor.com.vn/Hotel_Review-g293925-d2349003-Reviews-IPeace_Hotel-Ho_Chi_Minh_City.html,ok_jsonld,3.9,125.0,342105.0,1157895.0,750000.0,"175/8 Pham Ngu Lao St , Pham Ngu Lao Ward , Dist 1",Thành phố Hồ Chí Minh,Việt Nam,10.769137,106.69452,
M Village Living Ho Bieu Chanh,https://www.tripadvisor.com.vn/Hotel_Review-g293925-d26504573-Reviews-M_Village_Living_Ho_Bieu_Chanh-Ho_Chi_Minh_City.html,ok_jsonld,4.5,2.0,894737.0,1526316.0,1210526.5,"7/1 Ho Bieu Chanh, Phuong 12, Quan Phu Nhuan Phuong 12, Phu Nhuan",Thành phố Hồ Chí Minh,Việt Nam,10.79418,106.67702,
Somerset Thành phố Hồ Chí Minh,https://www.tripadvisor.com.vn/Hotel_Review-g293925-d627073-Reviews-Somerset_Ho_Chi_Minh_City-Ho_Chi_Minh_City.html,ok_jsonld,4.4,826.0,2973684.0,6236842.0,4605263.0,No 8a Nguyen Binh Khiem Street,Thành phố Hồ Chí Minh,Việt Nam,10.789987,106.703186,
Meander Saigon Hostel,https://www.tripadvisor.com.vn/Hotel_Review-g293925-d21339013-Reviews-Meander_Saigon_Hostel-Ho_Chi_Minh_City.html,ok_jsonld,4.5,33.0,1157895.0,3631579.0,2394737.0,"3b Ly Tu Trong Ben Nghe Ward, District 1",Thành phố Hồ Chí Minh,Việt Nam,10.782558,106.70528,
Tan Son Nhat Saigon Hotel,https://www.tripadvisor.com.vn/Hotel_Review-g293925-d4345813-Reviews-Tan_Son_Nhat_Saigon_Hotel-Ho_Chi_Minh_City.html,ok_jsonld,3.7,259.0,1631579.0,3263158.0,2447368.5,200-202 Hoang Van Thu Street Ward 9,Thành phố Hồ Chí Minh,Việt Nam,10.800509,106.67089,
HANZ Meraki Hotel Bui Vien Walking Street,https://www.tripadvisor.com.vn/Hotel_Review-g293925-d1150581-Reviews-HANZ_Meraki_Hotel_Bui_Vien_Walking_Street-Ho_Chi_Minh_City.html,ok_jsonld,4.0,418.0,394737.0,710526.0,552631.5,"198 Bùi Viện Phường Phạm Ngũ Lão, Quận 1",Thành phố Hồ Chí Minh,Việt Nam,10.766366,106.69173,
Ramada Encore By Wyndham Saigon,https://www.tripadvisor.com.vn/Hotel_Review-g293925-d8133980-Reviews-Ramada_Encore_By_Wyndham_Saigon-Ho_Chi_Minh_City.html,ok_jsonld,4.2,866.0,1710526.0,4263158.0,2986842.0,7A Thái Văn Lung Bến Nghé District 1,Thành phố Hồ Chí Minh,Việt Nam,10.777866,106.70613,
Khách sạn Ramana Sài Gòn,https://www.tripadvisor.com.vn/Hotel_Review-g293925-d451031-Reviews-Ramana_Saigon_Hotel-Ho_Chi_Minh_City.html,ok_jsonld,3.5,273.0,1026316.0,3289474.0,2157895.0,"323 Le Van Sy St., District 3",Thành phố Hồ Chí Minh,Việt Nam,10.787325,106.67755,
Sông Mê Home,https://www.tripadvisor.com.vn/Hotel_Review-g26999864-d26997631-Reviews-Song_Me_Home-Hoa_Ninh_Vinh_Long_Province_Mekong_Delta.html,ok_jsonld,5.0,3.0,736842.0,1078947.0,907894.5,52/4 Binh Thuan 2,Hòa Ninh,Việt Nam,10.269699,105.996254,
Ramada Encore Seoul Dongdaemun,https://www.tripadvisor.com.vn/Hotel_Review-g294197-d6876146-Reviews-Ramada_Encore_Seoul_Dongdaemun-Seoul.html,ok_jsonld,3.9,413.0,2078947.0,5815789.0,3947368.0,"22, Wangsan-ro, Dongdaemun-gu",Seoul,Hàn Quốc,37.576614,127.03309,
Bluetiful Homestay Đà Nẵng,https://www.tripadvisor.com.vn/Hotel_Review-g298085-d13149814-Reviews-Bluetiful_Homestay_Da_Nang-Da_Nang.html,ok_jsonld,4.0,2.0,,,,169 Tô Hiến Thành Sơn Trà,,Việt Nam,16.0568,108.24424,
Nguyen Ngoc Hotel,https://www.tripadvisor.com.vn/Hotel_Review-g13163595-d17790957-Reviews-Nguyen_Ngoc_Hotel-Ea_T_Ling_Dak_Nong_Province.html,ok_jsonld,0.0,0.0,263158.0,289474.0,276316.0,365 Tran Hung Dao,Ea T'Ling,Việt Nam,12.58166,107.8717,
Anhill Boutique,https://www.tripadvisor.com.vn/Hotel_Review-g293926-d22974817-Reviews-Anhill_Boutique-Hue_Thua_Thien_Hue_Province.html,ok_jsonld,5.0,255.0,3052632.0,4526316.0,3789474.0,Khai Dinh An Tay Ward,Huế,Việt Nam,16.417194,107.58985,
Pearl Hotel - Dao Tan,https://www.tripadvisor.com.vn/Hotel_Review-g293924-d3200243-Reviews-Pearl_Hotel_Dao_Tan-Hanoi.html,ok_jsonld,4.0,1.0,,,,"118 2, Dao Tan Street, Ba Dinh District",,Việt Nam,21.034197,105.80574,
Aura Home 6,https://www.tripadvisor.com.vn/Hotel_Review-g293924-d23324313-Reviews-Aura_Home_6-Hanoi.html,ok_jsonld,0.0,0.0,,,,39 Trang Tien,,Việt Nam,21.024937,105.854515,
Muong Thanh Hanoi Centre Hotel,https://www.tripadvisor.com.vn/Hotel_Review-g293924-d7838148-Reviews-Muong_Thanh_Hanoi_Centre_Hotel-Hanoi.html,ok_jsonld,3.9,138.0,1052632.0,2605263.0,1828947.5,78 Tho Nhuom Street Hoan Kiem District,,Việt Nam,21.023361,105.84781,
Timothe Beach Bungalow,https://www.tripadvisor.com.vn/Hotel_Review-g2098681-d12674136-Reviews-Timothe_Beach_Bungalow-Song_Cau_Town_Dak_Lak_Province.html,ok_jsonld,4.5,32.0,,,,Thôn Vịnh Hòa Xã Xuân Thịnh,,Việt Nam,13.506418,109.288925,
Huy Trung Homestay,https://www.tripadvisor.com.vn/Hotel_Review-g2415097-d11726236-Reviews-Huy_Trung_Homestay-Bac_Ha_Lao_Cai_Province.html,ok_jsonld,4.9,101.0,526316.0,842105.0,684210.5,Na Quang 3,Bắc Hà,Việt Nam,22.544245,104.29452,
Hung Phong Hotel,https://www.tripadvisor.com.vn/Hotel_Review-g293922-d6717571-Reviews-Hung_Phong_Hotel-Da_Lat_Lam_Dong_Province.html,ok_jsonld,2.5,2.0,684211.0,736842.0,710526.5,"46 Ha Huy Tap, Ward 3,",Đà Lạt,Việt Nam,11.938135,108.42551,
Mùa Dalat Wellness Hotel,https://www.tripadvisor.com.vn/Hotel_Review-g293922-d26860187-Reviews-Mua_Dalat_Wellness_Hotel-Da_Lat_Lam_Dong_Province.html,ok_jsonld,5.0,63.0,1263158.0,2210526.0,1736842.0,2 Đường Phù Đổng Thiên Vương,Đà Lạt,Việt Nam,11.957474,108.44268,
Myrcella Urban Studio,https://www.tripadvisor.com.vn/Hotel_Review-g293924-d26545599-Reviews-Myrcella_Urban_Studio-Hanoi.html,ok_jsonld,3.7,3.0,684211.0,1368421.0,1026316.0,No 33 Alley 12 Dao Tan Street,,Việt Nam,21.033566,105.80934,
Purple Lotus Hotel,https://www.tripadvisor.com.vn/Hotel_Review-g1652595-d19139172-Reviews-Purple_Lotus_Hotel-Hai_Duong_Hai_Duong_Province.html,ok_jsonld,5.0,67.0,947368.0,1473684.0,1210526.0,"232 Trường Chinh P. Tân Bình ,Thành phố",Hải Dương,Việt Nam,20.92672,106.30411,
Novotel Paris La Defense Esplanade,https://www.tripadvisor.com.vn/Hotel_Review-g1934807-d575532-Reviews-Novotel_Paris_La_Defense_Esplanade-La_Defense_Hauts_de_Seine_Ile_de_France.html,ok_jsonld,3.7,1578.0,3842105.0,10605263.0,7223684.0,2 Bd de Neuilly,,Pháp,48.88782,2.252286,
Garden Plaza Saigon,https://www.tripadvisor.com.vn/Hotel_Review-g293925-d1024510-Reviews-Garden_Plaza_Saigon-Ho_Chi_Minh_City.html,ok_jsonld,4.3,827.0,1921053.0,3289474.0,2605263.5,309B-311 Nguyen Van Troi Street Tan Son Hoa Ward,Thành phố Hồ Chí Minh,Việt Nam,10.799599,106.66811,
Khách sạn Đệ Nhất,https://www.tripadvisor.com.vn/Hotel_Review-g293925-d596180-Reviews-First_Hotel-Ho_Chi_Minh_City.html,ok_jsonld,3.7,486.0,1026316.0,1631579.0,1328947.5,"18 Hoang Viet Tân Sơn Nhất Ward,",Thành phố Hồ Chí Minh,Việt Nam,10.79594,106.6593,
Asian Ruby Hotel Apartment,https://www.tripadvisor.com.vn/Hotel_Review-g293925-d2067206-Reviews-Asian_Ruby_Hotel_Apartment-Ho_Chi_Minh_City.html,ok_jsonld,3.7,234.0,763158.0,1815789.0,1289473.5,122F - 122F1 Bui Thi Xuan,Thành phố Hồ Chí Minh,Việt Nam,10.769674,106.68822,
Khách Sạn Camila,https://www.tripadvisor.com.vn/Hotel_Review-g293925-d10745975-Reviews-Camila_Hotel-Ho_Chi_Minh_City.html,ok_jsonld,4.4,34.0,394737.0,763158.0,578947.5,"3 Sông Đà, P.2, Q. Tân Bình Gần Sân Bay",Thành phố Hồ Chí Minh,Việt Nam,10.80638,106.6646,
Ben Thanh Boutique Hotel,https://www.tripadvisor.com.vn/Hotel_Review-g293925-d7621082-Reviews-Ben_Thanh_Boutique_Hotel-Ho_Chi_Minh_City.html,ok_jsonld,4.1,432.0,947368.0,3052632.0,2000000.0,"34 55, Le Thi Hong Gam Nguyen Thai Binh Ward, District 1",Thành phố Hồ Chí Minh,Việt Nam,10.768181,106.69817,
Amaya Saigon Boutique Hotel,https://www.tripadvisor.com.vn/Hotel_Review-g293925-d33932936-Reviews-Amaya_Saigon_Boutique_Hotel-Ho_Chi_Minh_City.html,ok_jsonld,5.0,3.0,2210526.0,4447368.0,3328947.0,15F Le Thanh Ton street,Thành phố Hồ Chí Minh,Việt Nam,10.78094,106.70514,
Roseland Sweet Hotel,https://www.tripadvisor.com.vn/Hotel_Review-g293925-d15588889-Reviews-Roseland_Sweet_Hotel-Ho_Chi_Minh_City.html,ok_jsonld,4.2,94.0,1605263.0,4184211.0,2894737.0,"04 Cao Ba Quat. Phuong Ben Nghe, Quan 1",Thành phố Hồ Chí Minh,Việt Nam,10.778811,106.70491,
Athena Hotel,https://www.tripadvisor.com.vn/Hotel_Review-g293925-d7387693-Reviews-Athena_Hotel-Ho_Chi_Minh_City.html,ok_jsonld,4.0,100.0,1157895.0,2263158.0,1710526.5,"280 To Hien Thanh Ward 15, Dist 10",Thành phố Hồ Chí Minh,Việt Nam,10.77768,106.66503,
Aiden Saigon Hotel,https://www.tripadvisor.com.vn/Hotel_Review-g293925-d15108779-Reviews-Aiden_Saigon_Hotel-Ho_Chi_Minh_City.html,ok_jsonld,4.5,11.0,763158.0,1473684.0,1118421.0,"28-30-32-34 Đường Số 26 Phường 10, Quận 6",Thành phố Hồ Chí Minh,Việt Nam,10.79171,106.70168,
Amanaki Thao Dien Hotel,https://www.tripadvisor.com.vn/Hotel_Review-g293925-d24971339-Reviews-Amanaki_Thao_Dien_Hotel-Ho_Chi_Minh_City.html,ok_jsonld,5.0,9.0,2947368.0,4684211.0,3815789.5,"10 Nguyen Dang Giai Thao Dien, Thu Duc City",Thành phố Hồ Chí Minh,Việt Nam,10.801858,106.7355,
Iamsaigon,https://www.tripadvisor.com.vn/Hotel_Review-g293925-d12955537-Reviews-Iamsaigon-Ho_Chi_Minh_City.html,ok_jsonld,4.5,21.0,631579.0,1026316.0,828947.5,42/59 Hoang Hoa Tham,Thành phố Hồ Chí Minh,Việt Nam,10.808326,106.691,
Chotel Pham Ngu Lao,https://www.tripadvisor.com.vn/Hotel_Review-g293925-d13927474-Reviews-Chotel_Pham_Ngu_Lao-Ho_Chi_Minh_City.html,ok_jsonld,4.1,98.0,921053.0,1710526.0,1315789.5,"A67 Đ. Nguyễn Trãi Phường Nguyễn Cư Trinh, Quận 1",Thành phố Hồ Chí Minh,Việt Nam,10.766206,106.68788,
Kin Hotel Thi Sach,https://www.tripadvisor.com.vn/Hotel_Review-g293925-d28112173-Reviews-Kin_Hotel_Thi_Sach-Ho_Chi_Minh_City.html,ok_jsonld,4.5,46.0,2157895.0,5210526.0,3684210.5,"11A Thi Sách Bến Nghé, Quận 1",Thành phố Hồ Chí Minh,Việt Nam,10.776835,106.70507,
Violet Star Hotel,https://www.tripadvisor.com.vn/Hotel_Review-g293925-d11687683-Reviews-Violet_Star_Hotel-Ho_Chi_Minh_City.html,ok_jsonld,4.3,51.0,578947.0,1131579.0,855263.0,"35/ 10 Bùi Viện, phường Phạm Ngũ Lão, quận 1",Thành phố Hồ Chí Minh,Việt Nam,10.767181,106.69389,
M Village Hai Bà Trưng,https://www.tripadvisor.com.vn/Hotel_Review-g293925-d26813749-Reviews-M_Village_Hotel_Hai_Ba_Trung-Ho_Chi_Minh_City.html,ok_jsonld,4.9,26.0,1421053.0,3263158.0,2342105.5,"180A Hai Bà Trưng Da Kao, Quận 1",Thành phố Hồ Chí Minh,Việt Nam,10.786458,106.69456,
Vilion Central Hotel,https://www.tripadvisor.com.vn/Hotel_Review-g293925-d13997061-Reviews-Vilion_Central_Hotel-Ho_Chi_Minh_City.html,ok_jsonld,3.5,23.0,473684.0,1289474.0,881579.0,41-43 Le Anh Xuan Str. Near Ben Thanh market,Thành phố Hồ Chí Minh,Việt Nam,10.77199,106.69513,
Cochin Sang Hotel,https://www.tripadvisor.com.vn/Hotel_Review-g293925-d1791601-Reviews-Cochin_Sang_Hotel-Ho_Chi_Minh_City.html,ok_jsonld,3.9,459.0,1710526.0,7736842.0,4723684.0,"28-30 Nguyễn An Ninh Phường Bến Thành, Quận 1",Thành phố Hồ Chí Minh,Việt Nam,10.771896,106.69705,
Common Inn Thao Dien,https://www.tripadvisor.com.vn/Hotel_Review-g293925-d13437093-Reviews-Common_Inn_Thao_Dien-Ho_Chi_Minh_City.html,ok_jsonld,4.7,182.0,763158.0,1026316.0,894737.0,"19 Đường số 38 Phường Thảo Điền, Quận 2",Thành phố Hồ Chí Minh,Việt Nam,10.802874,106.73272,
White Lotus Hotel Saigon,https://www.tripadvisor.com.vn/Hotel_Review-g293925-d2505790-Reviews-White_Lotus_Hotel_Saigon-Ho_Chi_Minh_City.html,ok_jsonld,3.8,131.0,894737.0,2500000.0,1697368.5,"6A Thi Sach Ben Nghe Ward, District 1",Thành phố Hồ Chí Minh,Việt Nam,10.778176,106.7046,
Lynn của Maison Sài Gòn,https://www.tripadvisor.com.vn/Hotel_Review-g293925-d32976765-Reviews-Lynn_by_La_Doma_Express-Ho_Chi_Minh_City.html,ok_jsonld,4.6,11.0,500000.0,1078947.0,789473.5,"43C Kỳ Đồng Phường 9, Quận 3",Thành phố Hồ Chí Minh,Việt Nam,10.780835,106.68151,
Huỳnh Anh Hotel,https://www.tripadvisor.com.vn/Hotel_Review-g293925-d17352220-Reviews-Huynh_Anh_Hotel-Ho_Chi_Minh_City.html,ok_jsonld,5.0,3.0,289474.0,421053.0,355263.5,"10 Đường số 51 Phường 14, Quận Gò Vấp",Thành phố Hồ Chí Minh,Việt Nam,10.84828,106.64796,
Khách Sạn Northern Charm,https://www.tripadvisor.com.vn/Hotel_Review-g293925-d21504597-Reviews-Northern_Charm_Hotel-Ho_Chi_Minh_City.html,ok_jsonld,3.8,50.0,2157895.0,4868421.0,3513158.0,"12 Ly Tu Trong Street Ben Nghe Ward, District 1",Thành phố Hồ Chí Minh,Việt Nam,10.781981,106.70457,
Hera Luxury Hotel - Tan Son Nhat Airport,https://www.tripadvisor.com.vn/Hotel_Review-g293925-d26431316-Reviews-Hera_Luxury_Hotel_Tan_Son_Nhat_Airport-Ho_Chi_Minh_City.html,ok_jsonld,3.6,14.0,842105.0,1315789.0,1078947.0,19 Hậu Giang Phường 4,Thành phố Hồ Chí Minh,Việt Nam,10.807629,106.663864,
Norfolk Mansion Sài Gòn,https://www.tripadvisor.com.vn/Hotel_Review-g293925-d1226007-Reviews-Norfolk_Mansion_Luxury_Serviced_Apartment-Ho_Chi_Minh_City.html,ok_jsonld,4.5,236.0,3894737.0,6578947.0,5236842.0,17-19-21 Lý Tự Trọng Quận 1,Thành phố Hồ Chí Minh,Việt Nam,10.780975,106.703964,
Đại Nam Sài Gòn Hotel,https://www.tripadvisor.com.vn/Hotel_Review-g293925-d19116363-Reviews-Dai_Nam_Sai_Gon_Hotel-Ho_Chi_Minh_City.html,ok_jsonld,5.0,5.0,631579.0,1184211.0,907895.0,"5/11 Nguyễn Siêu Bến Nghé, Quận 1",Thành phố Hồ Chí Minh,Việt Nam,10.777253,106.70478,
Dahlialand Saigon Hotel & Swimming Pool,https://www.tripadvisor.com.vn/Hotel_Review-g293925-d33243023-Reviews-Dahlialand_Saigon_Hotel_Swimming_Pool-Ho_Chi_Minh_City.html,ok_jsonld,5.0,5.0,894737.0,2789474.0,1842105.5,145 Lê Thị Riêng,Thành phố Hồ Chí Minh,Việt Nam,10.770687,106.68926,
Dyn Opera Hotel,https://www.tripadvisor.com.vn/Hotel_Review-g293925-d17577594-Reviews-Dyn_Opera_Hotel-Ho_Chi_Minh_City.html,ok_jsonld,4.1,32.0,578947.0,1657895.0,1118421.0,"18 Đường Cao Bá Quát, Phường Bến Nghé, Quận 01",Thành phố Hồ Chí Minh,Việt Nam,10.7783,106.70444,
Galaxy Boutique Hotel,https://www.tripadvisor.com.vn/Hotel_Review-g293925-d19434140-Reviews-Galaxy_Boutique_Hotel-Ho_Chi_Minh_City.html,ok_jsonld,4.3,14.0,421053.0,842105.0,631579.0,"269/19 De Tham Street Phạm Ngũ Lão Ward, District 1",Thành phố Hồ Chí Minh,Việt Nam,10.7684,106.69325,
Khách Sạn TTC - Sân Bay,https://www.tripadvisor.com.vn/Hotel_Review-g293925-d1787810-Reviews-TTC_Hotel_Airport-Ho_Chi_Minh_City.html,ok_jsonld,4.7,212.0,789474.0,1552632.0,1171053.0,"315 Hoàng Văn Thụ Phường 2, Tân Bình",Thành phố Hồ Chí Minh,Việt Nam,10.800532,106.661446,
Ibis Saigon South,https://www.tripadvisor.com.vn/Hotel_Review-g293925-d3312777-Reviews-Ibis_Saigon_South-Ho_Chi_Minh_City.html,ok_jsonld,4.1,376.0,1394737.0,2421053.0,1907895.0,73 Hoang Van Thai Street Phú Mỹ Hưng Tan Phu Ward,Thành phố Hồ Chí Minh,Việt Nam,10.730502,106.723434,
Kaya Hotel,https://www.tripadvisor.com.vn/Hotel_Review-g1582771-d1867847-Reviews-Kaya_Hotel-Tuy_Hoa_Dak_Lak_Province.html,ok_jsonld,3.5,55.0,763158.0,868421.0,815789.5,"238 Hung Vuong Boulevard Ward 7, Tuy Hòa",,Việt Nam,0.0,0.0,
TTR Central Apart Hotel,https://www.tripadvisor.com.vn/Hotel_Review-g293922-d25558286-Reviews-TTR_Central_Apart_Hotel-Da_Lat_Lam_Dong_Province.html,ok_jsonld,4.2,5.0,578947.0,1526316.0,1052631.5,"4B Hải Thượng Phường 6, Đà Lạt",,Việt Nam,0.0,0.0,
Peace Resort,https://www.tripadvisor.com.vn/Hotel_Review-g1009804-d7241699-Reviews-Peace_Resort-Mui_Ne_Phan_Thiet_Binh_Thuan_Province.html,ok_jsonld,2.0,9.0,815789.0,1184211.0,1000000.0,"Xuan Thuy Street, Mũi Né",,Việt Nam,0.0,0.0,
Thu Ha Cat Ba Hotel,https://www.tripadvisor.com.vn/Hotel_Review-g737051-d3478183-Reviews-Thu_Ha_Cat_Ba_Hotel-Cat_Ba_Hai_Phong.html,ok_jsonld,3.4,71.0,394737.0,1500000.0,947368.5,205 Đường 1/4,,Việt Nam,0.0,0.0,
"Duong To, Phu Quoc",https://www.tripadvisor.com.vn/Hotel_Review-g469418-d15517460-Reviews-Duong_To_Phu_Quoc-Phu_Quoc_Island_Kien_Giang_Province.html,ok_jsonld,0.0,0.0,,,,Duong Tinh 973 Phu Son,,Việt Nam,0.0,0.0,
Thanh Thao Dalat Hotel,https://www.tripadvisor.com.vn/Hotel_Review-g293922-d6207817-Reviews-Thanh_Thao_Dalat_Hotel-Da_Lat_Lam_Dong_Province.html,ok_jsonld,2.7,6.0,315789.0,552632.0,434210.5,"21 Nguyen Van Troi, Da Lat, Đà Lạt",,Việt Nam,0.0,0.0,
Khách sạn Đức Thái,https://www.tripadvisor.com.vn/Hotel_Review-g293924-d641328-Reviews-Duc_Thai_Hotel-Hanoi.html,ok_jsonld,4.5,178.0,,,,95B Hang Ga str,,Việt Nam,0.0,0.0,
Silk Central Hotel & Travel,https://www.tripadvisor.com.vn/Hotel_Review-g293924-d1896319-Reviews-Silk_Central_Hotel_Travel-Hanoi.html,ok_jsonld,4.9,1190.0,1000000.0,2236842.0,1618421.0,15 Hàng Cân,,Việt Nam,0.0,0.0,
Blue Moon Hotel & Spa Mui Ne,https://www.tripadvisor.com.vn/Hotel_Review-g13172842-d15217913-Reviews-Blue_Moon_Hotel_Spa_Mui_Ne-Ham_Tien_Phan_Thiet_Binh_Thuan_Province.html,ok_jsonld,4.5,2.0,526316.0,947368.0,736842.0,"35D Nguyễn Đình Chiểu, Ham Tien",,Việt Nam,0.0,0.0,
Muji Hotel Beijing,https://www.tripadvisor.com.vn/Hotel_Review-g294212-d15232454-Reviews-Muji_Hotel_Beijing-Beijing.html,ok_jsonld,3.5,18.0,3052632.0,4394737.0,3723684.5,"Building 2, No.21 Langfang Toutiao, Meishi Street, Xicheng District, Bắc Kinh",,Việt Nam,0.0,0.0,
Sunny B Hotel,https://www.tripadvisor.com.vn/Hotel_Review-g293926-d1230773-Reviews-Sunny_B_Hotel-Hue_Thua_Thien_Hue_Province.html,ok_jsonld,4.6,333.0,289474.0,473684.0,381579.0,"4/34 Nguyen Tri Phuong Street, Huế",,Việt Nam,0.0,0.0,
Khanh Duong Hotel,https://www.tripadvisor.com.vn/Hotel_Review-g303942-d15074254-Reviews-Khanh_Duong_Hotel-Can_Tho_Mekong_Delta.html,ok_jsonld,4.0,1.0,,,,"20 Tran Quang Khai Cai Khe Ward, Ninh Kieu District, Cần Thơ",,Việt Nam,0.0,0.0,
Hotel COZi ∙ Harbour View,https://www.tripadvisor.com.vn/Hotel_Review-g294217-d13395146-Reviews-Hotel_COZi_Harbour_View-Hong_Kong.html,ok_jsonld,3.3,66.0,1736842.0,4289474.0,3013158.0,No.163 Wai Yip Street,,Việt Nam,0.0,0.0,
Khách sạn An Hòa,https://www.tripadvisor.com.vn/Hotel_Review-g293928-d1554291-Reviews-An_Hoa_Hotel-Nha_Trang_Khanh_Hoa_Province.html,ok_jsonld,4.3,335.0,,,,"64B / 6 Tran Phu, Nha Trang",,Việt Nam,0.0,0.0,
Reu Boutique Hotel,https://www.tripadvisor.com.vn/Hotel_Review-g298082-d27999112-Reviews-Reu_Boutique_Hotel-Hoi_An_Quang_Nam_Province.html,ok_jsonld,4.7,19.0,1631579.0,2263158.0,1947368.5,128/9 Ly Thai To Str Cam Chau Ward,,Việt Nam,0.0,0.0,
Blue River II Hotel,https://www.tripadvisor.com.vn/Hotel_Review-g293925-d1413468-Reviews-Blue_River_II_Hotel-Ho_Chi_Minh_City.html,ok_jsonld,3.5,129.0,315789.0,763158.0,539473.5,"54/13 Ky Con St District 1, Thành phố Hồ Chí Minh",,Việt Nam,0.0,0.0,
Ngoi Sao Phuong Nam Hotel,https://www.tripadvisor.com.vn/Hotel_Review-g293925-d15517437-Reviews-Ngoi_Sao_Phuong_Nam_Hotel-Ho_Chi_Minh_City.html,ok_jsonld,5.0,1.0,289474.0,1184211.0,736842.5,"41/2 Kp3, Duong Tan Thoi Nhat 01, Thành phố Hồ Chí Minh",,Việt Nam,0.0,0.0,
Nicecy Hotel Yersin,https://www.tripadvisor.com.vn/Hotel_Review-g293925-d33116597-Reviews-Nicecy_Hotel_Yersin-Ho_Chi_Minh_City.html,ok_jsonld,4.5,2.0,421053.0,1000000.0,710526.5,"7-9 Đường Yersin, Thành phố Hồ Chí Minh",,Việt Nam,0.0,0.0,
Le Jardin Secret Saigon,https://www.tripadvisor.com.vn/Hotel_Review-g293925-d17790717-Reviews-Le_Jardin_Secret_Saigon-Ho_Chi_Minh_City.html,ok_jsonld,4.4,11.0,1026316.0,1894737.0,1460526.5,"228 Ben Van Don Street Ward 5 District 4, Thành phố Hồ Chí Minh",,Việt Nam,0.0,0.0,
Le Saigon Hotel,https://www.tripadvisor.com.vn/Hotel_Review-g293925-d13403465-Reviews-Le_Saigon_Hotel-Ho_Chi_Minh_City.html,ok_jsonld,3.5,35.0,605263.0,763158.0,684210.5,"17 Đống Đa Phường 2, Tân Bình, Thành phố Hồ Chí Minh",,Việt Nam,0.0,0.0,
Hotel L Odeon,https://www.tripadvisor.com.vn/Hotel_Review-g293925-d8126625-Reviews-Hotel_L_Odeon-Ho_Chi_Minh_City.html,ok_jsonld,4.7,426.0,789474.0,1289474.0,1039474.0,"63-65 Lê Văn Thiêm, Thành phố Hồ Chí Minh",,Việt Nam,0.0,0.0,
Khoi Hostel,https://www.tripadvisor.com.vn/Hotel_Review-g293925-d4551141-Reviews-Khoi_Hostel-Ho_Chi_Minh_City.html,ok_jsonld,4.3,143.0,289474.0,631579.0,460526.5,"373 / 11 Pham Ngu Lao St, Dist 1, Thành phố Hồ Chí Minh",,Việt Nam,0.0,0.0,
"Kin Wander Tan Binh, The Mountain",https://www.tripadvisor.com.vn/Hotel_Review-g293925-d27647582-Reviews-Kin_Wander_The_Mountain-Ho_Chi_Minh_City.html,ok_jsonld,5.0,4.0,763158.0,1210526.0,986842.0,"51 Đường Núi Thành No.51, Thành phố Hồ Chí Minh",,Việt Nam,0.0,0.0,
Ha My Hotel,https://www.tripadvisor.com.vn/Hotel_Review-g293925-d14132188-Reviews-Ha_My_Hotel-Ho_Chi_Minh_City.html,ok_jsonld,4.0,5.0,289474.0,631579.0,460526.5,"32 Street No. 6 Linh Trung, Thu Duc, Thành phố Hồ Chí Minh",,Việt Nam,0.0,0.0,
Lotus Saigon Hotel,https://www.tripadvisor.com.vn/Hotel_Review-g293925-d558193-Reviews-Lotus_Saigon_Hotel-Ho_Chi_Minh_City.html,ok_jsonld,3.2,107.0,1157895.0,1921053.0,1539474.0,"120 Cach Mang Thang 8 Street Ward 7 District 3, Thành phố Hồ Chí Minh",,Việt Nam,0.0,0.0,
Novotel Living Saigon South,https://www.tripadvisor.com.vn/Hotel_Review-g293925-d26532141-Reviews-Novotel_Living_Saigon_South-Ho_Chi_Minh_City.html,ok_jsonld,4.8,48.0,2052632.0,3236842.0,2644737.0,"No 2 Street C Tan My Ward, Thành phố Hồ Chí Minh",,Việt Nam,0.0,0.0,
HemTouch House,https://www.tripadvisor.com.vn/Hotel_Review-g293925-d27956400-Reviews-HemTouch_House-Ho_Chi_Minh_City.html,ok_jsonld,5.0,4.0,947368.0,1868421.0,1407894.5,"146/20 Đường Võ Thị Sáu, Thành phố Hồ Chí Minh",,Việt Nam,0.0,0.0,
Winston Hotel Riverside,https://www.tripadvisor.com.vn/Hotel_Review-g293925-d20973044-Reviews-Winston_Hotel_Riverside-Ho_Chi_Minh_City.html,ok_jsonld,5.0,5.0,342105.0,526316.0,434210.5,"1110 Phạm Văn Đồng, Thành phố Hồ Chí Minh",,Việt Nam,0.0,0.0,
Khách sạn Hoàng Lan,https://www.tripadvisor.com.vn/Hotel_Review-g293925-d12964664-Reviews-Hoang_Lan_Hotel-Ho_Chi_Minh_City.html,ok_jsonld,4.4,36.0,1184211.0,2973684.0,2078947.5,"107/16 đường Trương Định phường 6 quận 3, Thành phố Hồ Chí Minh",,Việt Nam,0.0,0.0,
Saigon Domaine Luxury Residences,https://www.tripadvisor.com.vn/Hotel_Review-g293925-d608063-Reviews-Saigon_Domaine_Luxury_Residences-Ho_Chi_Minh_City.html,ok_jsonld,4.5,373.0,2368421.0,3552632.0,2960526.5,"1057 Binh Quoi street Binh Quoi Ward, Thành phố Hồ Chí Minh",,Việt Nam,0.0,0.0,
Brown Dot Hotel,https://www.tripadvisor.com.vn/Hotel_Review-g293925-d32897737-Reviews-Brown_Dot_Hotel-Ho_Chi_Minh_City.html,ok_jsonld,4.5,2.0,736842.0,1131579.0,934210.5,"155 Hoàng Hoa Thám Phường 13, Thành phố Hồ Chí Minh",,Việt Nam,0.0,0.0,
NTA Tower,https://www.tripadvisor.com.vn/Hotel_Review-g293925-d15584763-Reviews-NTA_Tower-Ho_Chi_Minh_City.html,ok_jsonld,4.9,7.0,1526316.0,2236842.0,1881579.0,"171-173 Điện Biên Phủ Phường Đa Kao, Quận 1, Thành phố Hồ Chí Minh",,Việt Nam,0.0,0.0,
Khách sạn Mỹ Lệ Sài Gòn,https://www.tripadvisor.com.vn/Hotel_Review-g293925-d667775-Reviews-Beautiful_Saigon_Hotel-Ho_Chi_Minh_City.html,ok_jsonld,4.3,1242.0,368421.0,1210526.0,789473.5,"62 Bui Vien St. Dist. 1, Thành phố Hồ Chí Minh",,Việt Nam,0.0,0.0,
The Lancaster Suites - Japan Town D1,https://www.tripadvisor.com.vn/Hotel_Review-g293925-d3200277-Reviews-The_Lancaster_Suites_Japan_Town_D1-Ho_Chi_Minh_City.html,ok_jsonld,3.8,20.0,1710526.0,4078947.0,2894736.5,"22 Lê Thánh Tôn Phường Bến Nghé, Quận 1, Thành phố Hồ Chí Minh",,Việt Nam,0.0,0.0,
Lan Anh Hotel,https://www.tripadvisor.com.vn/Hotel_Review-g293925-d6564867-Reviews-Lan_Anh_Hotel-Ho_Chi_Minh_City.html,ok_jsonld,3.6,14.0,263158.0,500000.0,381579.0,"251/28 Lê Văn Thọ, Thành phố Hồ Chí Minh",,Việt Nam,0.0,0.0,
La Doma en Adagio - Sleep and Heal,https://www.tripadvisor.com.vn/Hotel_Review-g293925-d32976766-Reviews-La_Maison_En_Adagio_Sleep_And_Heal-Ho_Chi_Minh_City.html,ok_jsonld,5.0,46.0,631579.0,1131579.0,881579.0,"42/4a Trần Đình Xu P. Cô Giang, Q.1, Thành phố Hồ Chí Minh",,Việt Nam,0.0,0.0,
Dai Nam Boutique Hotel,https://www.tripadvisor.com.vn/Hotel_Review-g293925-d25384801-Reviews-Dai_Nam_Boutique_Hotel-Ho_Chi_Minh_City.html,ok_jsonld,3.4,18.0,1315789.0,4421053.0,2868421.0,"79 Đường Trần Hưng Đạo Phường Cầu Ông Lãnh, Quận 1, Thành phố Hồ Chí Minh",,Việt Nam,0.0,0.0,
Cozrum Homes - Sonata Residence,https://www.tripadvisor.com.vn/Hotel_Review-g293925-d26637913-Reviews-Cozrum_Homes_Sonata_Residence-Ho_Chi_Minh_City.html,ok_jsonld,3.5,6.0,500000.0,763158.0,631579.0,"41 Nguyễn Thị Thập, Phường Tân Phú Quận 7, TP Hồ Chí Minh Quận 7, TP Hồ Chí Minh, Thành phố Hồ Chí Minh",,Việt Nam,0.0,0.0,
Khách sạn Minh Châu,https://www.tripadvisor.com.vn/Hotel_Review-g293925-d2138985-Reviews-Minh_Chau_Hotel-Ho_Chi_Minh_City.html,ok_jsonld,4.3,556.0,368421.0,500000.0,434210.5,"119 Hoa Hung street Phường 12, Quận 10, Thành phố Hồ Chí Minh",,Việt Nam,0.0,0.0,
Nhà khách Long,https://www.tripadvisor.com.vn/Hotel_Review-g293925-d1494458-Reviews-Long_Hostel-Ho_Chi_Minh_City.html,ok_jsonld,4.6,831.0,342105.0,447368.0,394736.5,"373/10 Pham Ngu Lao street Dist. 1, Thành phố Hồ Chí Minh",,Việt Nam,0.0,0.0,
New Space Hotel,https://www.tripadvisor.com.vn/Hotel_Review-g293925-d12152514-Reviews-New_Space_Hotel-Ho_Chi_Minh_City.html,ok_jsonld,3.9,73.0,578947.0,894737.0,736842.0,"51 Lam Son, Thành phố Hồ Chí Minh",,Việt Nam,0.0,0.0,
Victory Airport Hotel,https://www.tripadvisor.com.vn/Hotel_Review-g293925-d15698606-Reviews-Victory_Airport_Hotel-Ho_Chi_Minh_City.html,ok_jsonld,4.6,41.0,526316.0,842105.0,684210.5,"96 Yên Thế Phường 2, Tân Bình, Thành phố Hồ Chí Minh",,Việt Nam,0.0,0.0,
MerPerle Crystal Palace,https://www.tripadvisor.com.vn/Hotel_Review-g293925-d7847003-Reviews-MerPerle_Crystal_Palace-Ho_Chi_Minh_City.html,ok_jsonld,4.3,86.0,1842105.0,3315789.0,2578947.0,"13 Nguyen Luong Bang, Tan Phu Ward, District 7, Thành phố Hồ Chí Minh",,Việt Nam,0.0,0.0,
Khách Sạn Viet Lotus Saigon,https://www.tripadvisor.com.vn/Hotel_Review-g293925-d1728179-Reviews-Viet_Lotus_Saigon_Hotel-Ho_Chi_Minh_City.html,ok_jsonld,3.7,231.0,973684.0,1868421.0,1421052.5,"33 Cao Thang Street, Ward 2, District 3, Thành phố Hồ Chí Minh",,Việt Nam,0.0,0.0,
Coco Việt Homestay,https://www.tripadvisor.com.vn/Hotel_Review-g298082-d19797871-Reviews-Coco_Viet_Homestay-Hoi_An_Quang_Nam_Province.html,ok_jsonld,4.8,10.0,421053.0,1631579.0,1026316.0,32A Lê Quý Đôn Cẩm Phổ,,Việt Nam,0.0,0.0,
Golden Tulip Hotel,https://www.tripadvisor.com.vn/Hotel_Review-g293928-d7735498-Reviews-Golden_Tulip_Hotel-Nha_Trang_Khanh_Hoa_Province.html,ok_jsonld,2.6,17.0,,,,"18 Le Quy Don, Nha Trang",,Việt Nam,0.0,0.0,
Azura Resort Phu Quoc,https://www.tripadvisor.com.vn/Hotel_Review-g1184679-d14781666-Reviews-Azura_Resort-Duong_Dong_Phu_Quoc_Island_Kien_Giang_Province.html,ok_jsonld,4.5,33.0,842105.0,2289474.0,1565789.5,"101/5 Tran Hung Dao Alley 10, Block 7, Dương Đông",,Việt Nam,0.0,0.0,
Luxury Palace Hotel,https://www.tripadvisor.com.vn/Hotel_Review-g14776299-d21174446-Reviews-Luxury_Palace_Hotel-Ha_Long_City_H_Long_Bay_Quang_Ninh_Province.html,ok_jsonld,0.0,0.0,684211.0,921053.0,802632.0,"Phan Dang Luu Lo A20- Toa 02.03- KDT HDMON, Ha Long City",,Việt Nam,0.0,0.0,
Dumy House,https://www.tripadvisor.com.vn/Hotel_Review-g293922-d17658315-Reviews-Dumy_House-Da_Lat_Lam_Dong_Province.html,ok_jsonld,0.0,0.0,,,,"65 Phan Nhu Thach, Đà Lạt",,Việt Nam,0.0,0.0,
Maison Lee,https://www.tripadvisor.com.vn/Hotel_Review-g298085-d17609481-Reviews-Maison_Lee-Da_Nang.html,ok_jsonld,0.0,0.0,,,,90 Tran phu,,Việt Nam,0.0,0.0,
Duc Duy Hotel Ha Long,https://www.tripadvisor.com.vn/Hotel_Review-g14776299-d24988364-Reviews-Duc_Duy_Hotel_Ha_Long-Ha_Long_City_H_Long_Bay_Quang_Ninh_Province.html,ok_jsonld,0.0,0.0,,,,"Tổ 2, Khu 6, Phường Bãi Cháy, Ha Long City",,Việt Nam,0.0,0.0,
Sun City Hotel And Casino,https://www.tripadvisor.com.vn/Hotel_Review-g312652-d306617-Reviews-Sun_City_Hotel_And_Casino-Sun_City_Moses_Kotane_Local_Municipality_North_West_Province.html,ok_jsonld,3.5,698.0,6631579.0,15815789.0,11223684.0,"R556, Sun City",,Việt Nam,0.0,0.0,
Khách Sạn Thanh Tùng,https://www.tripadvisor.com.vn/Hotel_Review-g608528-d9997029-Reviews-Thanh_Tung_Hotel-Quy_Nhon_Binh_Dinh_Province.html,ok_jsonld,4.0,10.0,,,,12-14 Tú Xương,,Việt Nam,0.0,0.0,
Riverside Houayxay Hotel,https://www.tripadvisor.com.vn/Hotel_Review-g737155-d17552398-Reviews-Riverside_Houayxay_Hotel-Huay_Xai_Bokeo_Province.html,ok_jsonld,2.5,2.0,315789.0,736842.0,526315.5,Huay Xai,,Việt Nam,0.0,0.0,
Sofitel Guangzhou Sunrich,https://www.tripadvisor.com.vn/Hotel_Review-g298555-d1901388-Reviews-Sofitel_Guangzhou_Sunrich-Guangzhou_Guangdong.html,ok_jsonld,4.8,7455.0,2578947.0,4868421.0,3723684.0,"988 Guangzhou Da Dao Zhong Tianhe District, Quảng Châu, Quảng Đông",,Việt Nam,0.0,0.0,
Rosie Hotel Dalat,https://www.tripadvisor.com.vn/Hotel_Review-g293922-d26665375-Reviews-Rosie_Hotel_Dalat-Da_Lat_Lam_Dong_Province.html,ok_jsonld,0.0,0.0,394737.0,394737.0,394737.0,"84/2 Đường Phù Đổng Thiên Vương, Đà Lạt",,Việt Nam,0.0,0.0,
Lamui Homestay,https://www.tripadvisor.com.vn/Hotel_Review-g293922-d23275834-Reviews-Lamui_Homestay-Da_Lat_Lam_Dong_Province.html,ok_jsonld,0.0,0.0,,,,"66 Tô Vĩnh Diện, Phường 7, Đà Lạt",,Việt Nam,0.0,0.0,
Kim Ngân Motel,https://www.tripadvisor.com.vn/Hotel_Review-g311303-d28050337-Reviews-Kim_Ngan_Motel-Chau_Doc_An_Giang_Province.html,ok_jsonld,0.0,0.0,263158.0,421053.0,342105.5,"286 Tân Lộ Kiều Lương, Châu Đốc",,Việt Nam,0.0,0.0,
Park Hill Hotel & Apartment,https://www.tripadvisor.com.vn/Hotel_Review-g293925-d15591345-Reviews-Park_Hill_Hotel_Apartment-Ho_Chi_Minh_City.html,ok_jsonld,5.0,4.0,526316.0,789474.0,657895.0,"67 Lê Văn Thiêm Hung Phuoc 3, Tan Phong Ward, District 7, Phu My Hung, Thành phố Hồ Chí Minh",,Việt Nam,0.0,0.0,
Nexus House Nguyễn Bỉnh Khiêm,https://www.tripadvisor.com.vn/Hotel_Review-g293925-d29358537-Reviews-Nexus_Nguy_n_B_nh_Khiem-Ho_Chi_Minh_City.html,ok_jsonld,5.0,3.0,631579.0,1710526.0,1171052.5,"111 Đ. Nguyễn Bỉnh Khiêm Đa Kao, Quận 1, Thành phố Hồ Chí Minh",,Việt Nam,0.0,0.0,
Jan Villa SaiGon Oasis,https://www.tripadvisor.com.vn/Hotel_Review-g293925-d32719999-Reviews-Jan_Villa_SaiGon_Oasis-Ho_Chi_Minh_City.html,ok_jsonld,3.8,18.0,842105.0,2921053.0,1881579.0,"04 Đ.Nam Quốc Cang, Thành phố Hồ Chí Minh",,Việt Nam,0.0,0.0,
Richlane Residences By Oakwood,https://www.tripadvisor.com.vn/Hotel_Review-g293925-d28624453-Reviews-Richlane_Residences_By_Oakwood-Ho_Chi_Minh_City.html,ok_jsonld,5.0,3.0,2236842.0,3105263.0,2671052.5,"1056a Nguyễn Văn Linh SC Vivo City, Thành phố Hồ Chí Minh",,Việt Nam,0.0,0.0,
Binh Quoi 2 Resort,https://www.tripadvisor.com.vn/Hotel_Review-g293925-d6840387-Reviews-Binh_Quoi_2_Resort-Ho_Chi_Minh_City.html,ok_jsonld,4.1,17.0,500000.0,894737.0,697368.5,"1147 Binh Quoi Street, Ward 28, Thành phố Hồ Chí Minh",,Việt Nam,0.0,0.0,
Les Hameaux de l'Orient,https://www.tripadvisor.com.vn/Hotel_Review-g293925-d7379148-Reviews-Les_Hameaux_de_l_Orient-Ho_Chi_Minh_City.html,ok_jsonld,4.3,61.0,815789.0,1263158.0,1039473.5,"Số 29, Đường 717, Thành phố Hồ Chí Minh",,Việt Nam,0.0,0.0,
HAAN Resort & Golf,https://www.tripadvisor.com.vn/Hotel_Review-g293925-d23406304-Reviews-HAAN_Resort_Golf-Ho_Chi_Minh_City.html,ok_jsonld,4.7,3.0,842105.0,3973684.0,2407894.5,"87/18 Đường Cầu Đình Long Phước, Tp Thủ Đức, Thành phố Hồ Chí Minh",,Việt Nam,0.0,0.0,
Khách sạn Bros,https://www.tripadvisor.com.vn/Hotel_Review-g293925-d23525422-Reviews-Bros_Hotel-Ho_Chi_Minh_City.html,ok_jsonld,4.0,6.0,578947.0,815789.0,697368.0,"222 Đ. Nguyễn Cư Trinh Viện Thẩm Mỹ Quốc Tế V.I.P, Thành phố Hồ Chí Minh",,Việt Nam,0.0,0.0,
Khách sạn Roseland Corp,https://www.tripadvisor.com.vn/Hotel_Review-g293925-d9861802-Reviews-Roseland_Corp_Hotel-Ho_Chi_Minh_City.html,ok_jsonld,4.4,169.0,1605263.0,4000000.0,2802631.5,"8A/6D2 Thái Văn Lung, P. Bến Nghé, Q.1, Thành phố Hồ Chí Minh",,Việt Nam,0.0,0.0,
The Alley Saigon Hotel,https://www.tripadvisor.com.vn/Hotel_Review-g293925-d21142698-Reviews-The_Alley_Saigon_Hotel-Ho_Chi_Minh_City.html,ok_jsonld,5.0,27.0,368421.0,763158.0,565789.5,"283/24 Phạm Ngũ Lão Street, Thành phố Hồ Chí Minh",,Việt Nam,0.0,0.0,
Adventure Hotel,https://www.tripadvisor.com.vn/Hotel_Review-g293925-d27648049-Reviews-Adventure_Hotel-Ho_Chi_Minh_City.html,ok_jsonld,5.0,7.0,473684.0,1684211.0,1078947.5,"26/8 Truong Dinh Street, Ben Thanh Ward, District 1, Thành phố Hồ Chí Minh",,Việt Nam,0.0,0.0,
Thanh Hong Hotel,https://www.tripadvisor.com.vn/Hotel_Review-g293925-d4339784-Reviews-Thanh_Hong_Hotel-Ho_Chi_Minh_City.html,ok_jsonld,3.9,32.0,263158.0,289474.0,276316.0,"19 64, Xuan Dieu Street 4 Ward, Tan Binh District, Thành phố Hồ Chí Minh",,Việt Nam,0.0,0.0,
M Village Hotel Nguyễn Du,https://www.tripadvisor.com.vn/Hotel_Review-g293925-d32985738-Reviews-M_Village_Hotel_Nguy_n_Du-Ho_Chi_Minh_City.html,ok_jsonld,5.0,24.0,2000000.0,5131579.0,3565789.5,"149-151 Đường Nguyễn Du District 1, Thành phố Hồ Chí Minh",,Việt Nam,0.0,0.0,
My Anh 120 Central Saigon Hotel,https://www.tripadvisor.com.vn/Hotel_Review-g293925-d12520750-Reviews-My_Anh_120_Central_Saigon_Hotel-Ho_Chi_Minh_City.html,ok_jsonld,4.4,79.0,447368.0,1552632.0,1000000.0,"71/12 Nguyen Trai Bến Thành, Quận 1, Thành phố Hồ Chí Minh",,Việt Nam,0.0,0.0,
Khách sạn Hòa Phát,https://www.tripadvisor.com.vn/Hotel_Review-g293925-d2347223-Reviews-Hoa_Phat_Hotel_Apartment-Ho_Chi_Minh_City.html,ok_jsonld,3.9,74.0,500000.0,1473684.0,986842.0,"526/5 Đường Phạm Văn Đồng, Quận Thủ Đức, Thành phố Hồ Chí Minh",,Việt Nam,0.0,0.0,
Khách sạn Viên Gạch Nhỏ Sài Gòn,https://www.tripadvisor.com.vn/Hotel_Review-g293925-d2178349-Reviews-Little_Brick_Saigon_Hotel-Ho_Chi_Minh_City.html,ok_jsonld,4.1,91.0,578947.0,763158.0,671052.5,"18 Bùi Thị Xuân Quận 1, Thành phố Hồ Chí Minh",,Việt Nam,0.0,0.0,
Phố đi bộ Bùi Viện HANZ Boutique Hotel,https://www.tripadvisor.com.vn/Hotel_Review-g293925-d8630977-Reviews-Hanz_Boutique_Hotel_Bui_Vien_Walking_Street-Ho_Chi_Minh_City.html,ok_jsonld,4.2,563.0,526316.0,1236842.0,881579.0,"40/21 Bui Vien, Ben Thanh Market Phường Phạm Ngũ Lão, Quận 1, Thành phố Hồ Chí Minh",,Việt Nam,0.0,0.0,
Ciao Saigon Hotel and Spa,https://www.tripadvisor.com.vn/Hotel_Review-g293925-d11699669-Reviews-Ciao_Saigon_Hotel_and_Spa-Ho_Chi_Minh_City.html,ok_jsonld,3.8,74.0,947368.0,1605263.0,1276315.5,"1 Đống Đa Phường 2, Quận Tân Bình, Thành phố Hồ Chí Minh",,Việt Nam,0.0,0.0,
Apollo Hotel,https://www.tripadvisor.com.vn/Hotel_Review-g293925-d11929945-Reviews-Apollo_Hotel-Ho_Chi_Minh_City.html,ok_jsonld,4.8,5.0,421053.0,789474.0,605263.5,"94 Yen The, Ward 2, Thành phố Hồ Chí Minh",,Việt Nam,0.0,0.0,
Happy Life Green Hotel,https://www.tripadvisor.com.vn/Hotel_Review-g293925-d27094487-Reviews-Happy_Life_Green_Hotel-Ho_Chi_Minh_City.html,ok_jsonld,4.2,28.0,815789.0,2578947.0,1697368.0,"549 Đ. Trần Hưng Đạo District 1, Thành phố Hồ Chí Minh",,Việt Nam,0.0,0.0,
HANZ Sunflower Hotel & Spa Saigon,https://www.tripadvisor.com.vn/Hotel_Review-g293925-d2214770-Reviews-HANZ_Sunflower_Hotel_Spa_Saigon-Ho_Chi_Minh_City.html,ok_jsonld,4.1,11.0,394737.0,763158.0,578947.5,"821-823 Le Hong Phong, District 10 Ward 12, District 10, Thành phố Hồ Chí Minh",,Việt Nam,0.0,0.0,
La Casita Saigon,https://www.tripadvisor.com.vn/Hotel_Review-g293925-d14001973-Reviews-La_Casita_Saigon-Ho_Chi_Minh_City.html,ok_jsonld,4.6,17.0,2947368.0,4473684.0,3710526.0,"25 Tran Ngoc Dien Thao Dien - Quan 2, Thành phố Hồ Chí Minh",,Việt Nam,0.0,0.0,
A&EM Art Hotel,https://www.tripadvisor.com.vn/Hotel_Review-g293925-d13271104-Reviews-A_EM_Art_Hotel-Ho_Chi_Minh_City.html,ok_jsonld,3.2,179.0,1736842.0,3605263.0,2671052.5,"31-35 Lê Anh Xuân Phường Bến Thành, Quận 1, Thành phố Hồ Chí Minh",,Việt Nam,0.0,0.0,
Mari Hotel By Connek,https://www.tripadvisor.com.vn/Hotel_Review-g293925-d23261983-Reviews-Mari_Hotel_By_Connek-Ho_Chi_Minh_City.html,ok_jsonld,4.5,26.0,657895.0,868421.0,763158.0,"158B Bùi Thị Xuân, Phường Phạm Ngũ Lão, Quận 1 District 1, Thành phố Hồ Chí Minh",,Việt Nam,0.0,0.0,
Emerald Serviced Apartments,https://www.tripadvisor.com.vn/Hotel_Review-g293925-d12945125-Reviews-Emerald_Serviced_Apartments-Ho_Chi_Minh_City.html,ok_jsonld,4.9,10.0,394737.0,1631579.0,1013158.0,"159 - 161 Pham Thai Buong St, Tan Phong ward, District 7, Thành phố Hồ Chí Minh",,Việt Nam,0.0,0.0,
Sunny Guest House,https://www.tripadvisor.com.vn/Hotel_Review-g293925-d10675609-Reviews-Sunny_Guest_House-Ho_Chi_Minh_City.html,ok_jsonld,4.7,107.0,657895.0,1184211.0,921053.0,"241/20 Phạm Ngũ Lão District 1, Thành phố Hồ Chí Minh",,Việt Nam,0.0,0.0,
Glenwood City Resort,https://www.tripadvisor.com.vn/Hotel_Review-g293925-d6963471-Reviews-Glenwood_City_Resort-Ho_Chi_Minh_City.html,ok_jsonld,3.9,47.0,1078947.0,1736842.0,1407894.5,"243 Nguyen Van Huong St, Thao Dien Ward, Dist 2,, Thành phố Hồ Chí Minh",,Việt Nam,0.0,0.0,
City By Night Ben Thanh Apartments,https://www.tripadvisor.com.vn/Hotel_Review-g293925-d21303333-Reviews-City_By_Night_Ben_Thanh_Apartments-Ho_Chi_Minh_City.html,ok_jsonld,4.5,4.0,1947368.0,5105263.0,3526315.5,"The One Saigon , 136 Le Thi Hong Gam , District 1, Thành phố Hồ Chí Minh",,Việt Nam,0.0,0.0,
Chez Mimosa Thanh Vinh Hotel,https://www.tripadvisor.com.vn/Hotel_Review-g293925-d24989268-Reviews-Chez_Mimosa_Thanh_Vinh_Hotel-Ho_Chi_Minh_City.html,ok_jsonld,5.0,2.0,263158.0,526316.0,394737.0,"562 Song Hành Xa lộ Hà Nội - Quận 9 District 9, Thành phố Hồ Chí Minh",,Việt Nam,0.0,0.0,
Hotel Riviera,https://www.tripadvisor.com.vn/Hotel_Review-g294197-d306168-Reviews-Hotel_Riviera-Seoul.html,ok_jsonld,3.8,342.0,1947368.0,4947368.0,3447368.0,"737, Yeongdong-daero, Gangnam-gu, Seoul",,Việt Nam,0.0,0.0,
Khách sạn Trường An,https://www.tripadvisor.com.vn/Hotel_Review-g469421-d16725607-Reviews-Truong_An_Hotel-Vinh_Long_Vinh_Long_Province_Mekong_Delta.html,ok_jsonld,1.0,1.0,,,,"29 Quốc lộ 1A Tân Ngãi, Vĩnh Long",,Việt Nam,0.0,0.0,
Tran Chau Beach & Resort,https://www.tripadvisor.com.vn/Hotel_Review-g3923923-d26443272-Reviews-Tran_Chau_Beach_Resort-Phuoc_Hai_Ba_Ria_Vung_Tau_Province.html,ok_jsonld,0.0,0.0,1105263.0,3368421.0,2236842.0,"Duong Tinh 44A, Phước Hải",,Việt Nam,0.0,0.0,
Ong Rừng Camping,https://www.tripadvisor.com.vn/Hotel_Review-g2065227-d25073666-Reviews-Ong_R_ng_Camping-Ba_Ria_Ba_Ria_Vung_Tau_Province.html,ok_jsonld,5.0,1.0,,,,"G4QR+6CP Tân Thành, Bà Rịa - Vũng Tàu, Bà Rịa",,Việt Nam,0.0,0.0,
Lyly Hotel,https://www.tripadvisor.com.vn/Hotel_Review-g298085-d6164093-Reviews-Lyly_Hotel-Da_Nang.html,ok_jsonld,0.0,0.0,,,,179B Nguyen Tat Thanh,,Việt Nam,0.0,0.0,
Jade Mountain Villa,https://www.tripadvisor.com.vn/Hotel_Review-g5556278-d23219731-Reviews-Jade_Mountain_Villa-Ham_Ninh_Phu_Quoc_Island_Kien_Giang_Province.html,ok_jsonld,4.7,6.0,,,,"Cầu Hàm Ninh TL48 Tổ 3 Ấp Cây Sao, Hàm Ninh",,Việt Nam,0.0,0.0,
Khách Sạn Âu Lạc- 31 Nguyễn Lạc,https://www.tripadvisor.com.vn/Hotel_Review-g608528-d21368068-Reviews-Khach_San_Au_Lac_31_Nguyen_Lac-Quy_Nhon_Binh_Dinh_Province.html,ok_jsonld,0.0,0.0,,,,03 Ngo May Street,,Việt Nam,0.0,0.0,
Mekong Queen Resort,https://www.tripadvisor.com.vn/Hotel_Review-g303942-d21370872-Reviews-Mekong_Queen_Resort-Can_Tho_Mekong_Delta.html,ok_jsonld,5.0,1.0,,,,"257 Huỳnh Thị Nở, P. Thường Thạnh, Cần Thơ",,Việt Nam,0.0,0.0,
Ala Hotel Kyoto,https://www.tripadvisor.com.vn/Hotel_Review-g298564-d26686223-Reviews-Ala_Hotel_Kyoto-Kyoto_Kyoto_Prefecture_Kinki.html,ok_jsonld,4.1,13.0,1736842.0,6157895.0,3947368.5,"518 Higashinotoindori Shichijo Sagaru Shiokojicho, Shimogyo-ku, Quận Kyoto",,Việt Nam,0.0,0.0,
Media Central Hanoi,https://www.tripadvisor.com.vn/Hotel_Review-g293924-d25311177-Reviews-Media_Central_Hanoi-Hanoi.html,ok_jsonld,4.8,30.0,1447368.0,4184211.0,2815789.5,108 Hang Bac Street,,Việt Nam,0.0,0.0,
Khách sạn Duy Tân,https://www.tripadvisor.com.vn/Hotel_Review-g293928-d1228671-Reviews-Duy_Tan_Hotel-Nha_Trang_Khanh_Hoa_Province.html,ok_jsonld,3.0,1.0,,,,"24 Tran Phu St., Nha Trang",,Việt Nam,0.0,0.0,
Kanaya,https://www.tripadvisor.com.vn/Hotel_Review-g298115-d1083038-Reviews-Kanaya-Kanazawa_Ishikawa_Prefecture_Hokuriku_Chubu.html,ok_jsonld,2.8,31.0,,,,"56 I Yuwakumachi, Kanazawa, Ishikawa Prefecture",,Việt Nam,0.0,0.0,
Khách sạn Vân Hòa Phát,https://www.tripadvisor.com.vn/Hotel_Review-g8429843-d7340168-Reviews-Van_Hoa_Phat_Hotel-Phuoc_Buu_Ba_Ria_Vung_Tau_Province.html,ok_jsonld,0.0,0.0,,,,"110-112 QL 55, Phước Bửu, Xuyên Mộc., Phước Bửu",,Việt Nam,0.0,0.0,
One Farrer Hotel,https://www.tripadvisor.com.vn/Hotel_Review-g294265-d6530192-Reviews-One_Farrer_Hotel-Singapore.html,ok_jsonld,4.7,4274.0,4473684.0,8842105.0,6657894.5,1 Farrer Park Station Road,,Việt Nam,0.0,0.0,
Zhuhai Holiday Resort Hotel,https://www.tripadvisor.com.vn/Hotel_Review-g297418-d535951-Reviews-Zhuhai_Holiday_Resort_Hotel-Zhuhai_Guangdong.html,ok_jsonld,4.0,177.0,1605263.0,4052632.0,2828947.5,"No.9 Shihua East Road, Jida, Xiangzhou Dsitrict, Zhuhai, Quảng Đông",,Việt Nam,0.0,0.0,
Song Anh Hotel 3,https://www.tripadvisor.com.vn/Hotel_Review-g293925-d3750846-Reviews-Song_Anh_Hotel_3-Ho_Chi_Minh_City.html,ok_jsonld,3.8,21.0,473684.0,1210526.0,842105.0,"24 Le Lai District 1, Thành phố Hồ Chí Minh",,Việt Nam,0.0,0.0,
Jasmine Hotel,https://www.tripadvisor.com.vn/Hotel_Review-g293925-d1401060-Reviews-Jasmine_Hotel-Ho_Chi_Minh_City.html,ok_jsonld,4.0,506.0,473684.0,947368.0,710526.0,"283/25 Phạm Ngũ Lão, Q.1, Thành phố Hồ Chí Minh",,Việt Nam,0.0,0.0,
La Bonita Hotel And Apartments,https://www.tripadvisor.com.vn/Hotel_Review-g293925-d25799914-Reviews-La_Bonita_Hotel_And_Apartments-Ho_Chi_Minh_City.html,ok_jsonld,4.6,10.0,631579.0,973684.0,802631.5,"38-40-42 Hưng Phước 4 Tân Phong, Quận 7, Thành phố Hồ Chí Minh",,Việt Nam,0.0,0.0,
Luna Hotel Saigon Center,https://www.tripadvisor.com.vn/Hotel_Review-g293925-d33093160-Reviews-Luna_Hotel_Saigon_Center-Ho_Chi_Minh_City.html,ok_jsonld,5.0,2.0,552632.0,1342105.0,947368.5,"69 Nguyen Thai Hoc Cau Ong Lanh Ward, Thành phố Hồ Chí Minh",,Việt Nam,0.0,0.0,
Blue Diamond 8B Hotel,https://www.tripadvisor.com.vn/Hotel_Review-g293925-d16866472-Reviews-Blue_Diamond_8B_Hotel-Ho_Chi_Minh_City.html,ok_jsonld,3.9,15.0,1394737.0,3368421.0,2381579.0,"8B - 8C Le Thanh Ton Street Ben Nghe Ward, Thành phố Hồ Chí Minh",,Việt Nam,0.0,0.0,
Acnos Grand Hotel,https://www.tripadvisor.com.vn/Hotel_Review-g293925-d24181191-Reviews-Acnos_Grand_Hotel-Ho_Chi_Minh_City.html,ok_jsonld,3.6,10.0,1315789.0,1763158.0,1539473.5,"84 Đ. Cách Mạng Tháng 8 Phường 6, Quận 3, Thành phố Hồ Chí Minh",,Việt Nam,0.0,0.0,
Khách sạn DDA Quận 1 (BIZU),https://www.tripadvisor.com.vn/Hotel_Review-g293925-d2699399-Reviews-DDA_Hotel_District_1-Ho_Chi_Minh_City.html,ok_jsonld,3.8,294.0,421053.0,605263.0,513158.0,"183 Đề Thám Phường Phạm Ngũ Lão, Quận 1, Thành phố Hồ Chí Minh",,Việt Nam,0.0,0.0,
My Stay Hotel & Apartment,https://www.tripadvisor.com.vn/Hotel_Review-g293925-d25231307-Reviews-My_Stay_Hotel_Apartment-Ho_Chi_Minh_City.html,ok_jsonld,5.0,40.0,1184211.0,2631579.0,1907895.0,"139/5 Nguyen Cu Trinh Street Dist 1, Thành phố Hồ Chí Minh",,Việt Nam,0.0,0.0,
Pearl Central Hotel,https://www.tripadvisor.com.vn/Hotel_Review-g293925-d26329084-Reviews-Pearl_Central_Hotel-Ho_Chi_Minh_City.html,ok_jsonld,4.0,3.0,868421.0,1894737.0,1381579.0,"34 Mac Thi Buoi, Thành phố Hồ Chí Minh",,Việt Nam,0.0,0.0,
Airstar Hotel & Apartments,https://www.tripadvisor.com.vn/Hotel_Review-g293925-d15604891-Reviews-Airstar_Hotel_Apartments-Ho_Chi_Minh_City.html,ok_jsonld,4.6,7.0,710526.0,1289474.0,1000000.0,"6 Sông Đáy Phường 2, Quận Tân Bình, Thành phố Hồ Chí Minh",,Việt Nam,0.0,0.0,
Kim Hotel,https://www.tripadvisor.com.vn/Hotel_Review-g293925-d1234514-Reviews-Kim_Hotel-Ho_Chi_Minh_City.html,ok_jsonld,4.1,221.0,631579.0,1394737.0,1013158.0,"18 40, Bui Vien Street Pham Ngu Lao Ward, Thành phố Hồ Chí Minh",,Việt Nam,0.0,0.0,
Khách sạn Ngọc Minh,https://www.tripadvisor.com.vn/Hotel_Review-g293925-d640252-Reviews-Ngoc_Minh_Hotel-Ho_Chi_Minh_City.html,ok_jsonld,4.0,312.0,657895.0,1236842.0,947368.5,"283/11-13 Pham Ngu Lao Street District 1, Thành phố Hồ Chí Minh",,Việt Nam,0.0,0.0,
Huazhu Hotel,https://www.tripadvisor.com.vn/Hotel_Review-g293925-d28643274-Reviews-Huazhu_Hotel-Ho_Chi_Minh_City.html,ok_jsonld,3.5,14.0,1868421.0,5052632.0,3460526.5,"302 Ð. Vo Van Kiet Quan 1, Thành phố Hồ Chí Minh",,Việt Nam,0.0,0.0,
Cozi 5 Hotel & Apartment,https://www.tripadvisor.com.vn/Hotel_Review-g293925-d23463969-Reviews-Cozi_5_Hotel_Apartment-Ho_Chi_Minh_City.html,ok_jsonld,5.0,16.0,315789.0,1473684.0,894736.5,"R4-54-55 Hung Gia 2 - Tan Phong, Thành phố Hồ Chí Minh",,Việt Nam,0.0,0.0,
Mobylette Saigon Hostel,https://www.tripadvisor.com.vn/Hotel_Review-g293925-d3324337-Reviews-Mobylette_Saigon_Hostel-Ho_Chi_Minh_City.html,ok_jsonld,3.4,68.0,289474.0,842105.0,565789.5,"190 Cống Quỳnh Phường Phạm Ngũ Lão, Quận 1, Thành phố Hồ Chí Minh",,Việt Nam,0.0,0.0,
Cherry Blossom Boutique Hotel,https://www.tripadvisor.com.vn/Hotel_Review-g293925-d33021639-Reviews-Cherry_Blossom_Boutique_Hotel-Ho_Chi_Minh_City.html,ok_jsonld,5.0,3.0,710526.0,1289474.0,1000000.0,"17 Hẻm 12 Nguyễn Thị Minh Khai, Thành phố Hồ Chí Minh",,Việt Nam,0.0,0.0,
Sao Mai Hotel,https://www.tripadvisor.com.vn/Hotel_Review-g293925-d10433139-Reviews-Sao_Mai_Hotel-Ho_Chi_Minh_City.html,ok_jsonld,4.0,6.0,315789.0,552632.0,434210.5,"896 Đ. Nguyễn Trãi, Thành phố Hồ Chí Minh",,Việt Nam,0.0,0.0,
Woody House,https://www.tripadvisor.com.vn/Hotel_Review-g293925-d19842768-Reviews-Woody_House-Ho_Chi_Minh_City.html,ok_jsonld,5.0,3.0,842105.0,1078947.0,960526.0,"6/27 Cách Mạng Tháng 8 Phường Bến Thành, Quận 1, Thành phố Hồ Chí Minh",,Việt Nam,0.0,0.0,
Stellar Boutique Hotel,https://www.tripadvisor.com.vn/Hotel_Review-g293925-d24987824-Reviews-Stellar_Boutique_Hotel-Ho_Chi_Minh_City.html,ok_jsonld,5.0,8.0,710526.0,1184211.0,947368.5,"15-17 Cao Triều Phát Tân Phong Ward, District 7, Thành phố Hồ Chí Minh",,Việt Nam,0.0,0.0,
S79 Happy Hotel,https://www.tripadvisor.com.vn/Hotel_Review-g293925-d2108931-Reviews-S79_Happy_Hotel-Ho_Chi_Minh_City.html,ok_jsonld,4.2,6.0,447368.0,1684211.0,1065789.5,"7 Ly Thai To Ward 1, District 10, Thành phố Hồ Chí Minh",,Việt Nam,0.0,0.0,
Kim Khoi Hotel,https://www.tripadvisor.com.vn/Hotel_Review-g293925-d3186385-Reviews-Kim_Khoi_Hotel-Ho_Chi_Minh_City.html,ok_jsonld,3.9,41.0,578947.0,1526316.0,1052631.5,"181 Pham Ngu Lao Street, District 1, Thành phố Hồ Chí Minh",,Việt Nam,0.0,0.0,
Mai Hotel,https://www.tripadvisor.com.vn/Hotel_Review-g293925-d13473930-Reviews-Mai_Hotel-Ho_Chi_Minh_City.html,ok_jsonld,4.2,46.0,500000.0,815789.0,657894.5,"54/34 Bạch Đằng Phường 02, Quận Tân Bình, Thành phố Hồ Chí Minh",,Việt Nam,0.0,0.0,
Senerity Sky Villas By Luminous Luxury Apartment,https://www.tripadvisor.com.vn/Hotel_Review-g293925-d25417859-Reviews-Senerity_Sky_Villas_By_Luminous_Luxury_Apartment-Ho_Chi_Minh_City.html,ok_jsonld,4.0,4.0,2684211.0,11921053.0,7302632.0,"259 Dien Bien Phu Vo Thi Sau Ward, Thành phố Hồ Chí Minh",,Việt Nam,0.0,0.0,
Boutique Garden Hotel Ho Chi Minh,https://www.tripadvisor.com.vn/Hotel_Review-g293925-d3228783-Reviews-Boutique_Garden_Hotel_Ho_Chi_Minh-Ho_Chi_Minh_City.html,ok_jsonld,4.5,14.0,921053.0,1289474.0,1105263.5,"R3-84 Hung Phuoc 3,Dist 7, Phu My Hung, Thành phố Hồ Chí Minh",,Việt Nam,0.0,0.0,
New Pearl Hotel,https://www.tripadvisor.com.vn/Hotel_Review-g293925-d3323671-Reviews-New_Pearl_Hotel-Ho_Chi_Minh_City.html,ok_jsonld,3.9,43.0,315789.0,710526.0,513157.5,"266 De Tham St., District 1 Pham Ngu Lao / Tay Balo, Thành phố Hồ Chí Minh",,Việt Nam,0.0,0.0,
Titi Hotel,https://www.tripadvisor.com.vn/Hotel_Review-g293925-d2259204-Reviews-Titi_Hotel-Ho_Chi_Minh_City.html,ok_jsonld,3.8,49.0,289474.0,552632.0,421053.0,"40/12-14A Biu Vien Street District 1, Thành phố Hồ Chí Minh",,Việt Nam,0.0,0.0,
Duc Minh Hotel,https://www.tripadvisor.com.vn/Hotel_Review-g293925-d3236157-Reviews-Duc_Minh_Hotel-Ho_Chi_Minh_City.html,ok_jsonld,4.1,16.0,421053.0,1263158.0,842105.5,"23/2, Hoang Viet Street, Thành phố Hồ Chí Minh",,Việt Nam,0.0,0.0,
El Ocaso - Khách sạn và Căn hộ,https://www.tripadvisor.com.vn/Hotel_Review-g293925-d23447019-Reviews-El_Ocaso_Hotel_and_Apartments-Ho_Chi_Minh_City.html,ok_jsonld,5.0,13.0,657895.0,1184211.0,921053.0,"22 Khu Phố Hưng Phước 2 Tân Phong, Quận 7, Thành phố Hồ Chí Minh",,Việt Nam,0.0,0.0,
The Rice 131 Bui Vien Hotel,https://www.tripadvisor.com.vn/Hotel_Review-g293925-d29185224-Reviews-The_Rice_131_Bui_Vien_Hotel-Ho_Chi_Minh_City.html,ok_jsonld,5.0,7.0,421053.0,710526.0,565789.5,"131 Bùi Viện Phường Phạm Ngũ Lão, Quận 1, Thành phố Hồ Chí Minh",,Việt Nam,0.0,0.0,
Craftsman Bangkok,https://www.tripadvisor.com.vn/Hotel_Review-g293916-d14175354-Reviews-Craftsman_Bangkok-Bangkok.html,ok_jsonld,4.6,90.0,1421053.0,5131579.0,3276316.0,"34-36 Phahonyothin 11 Phahonyothin Road, Samsen Naai, Phaya Thai,bangkok, Bangkok",,Việt Nam,0.0,0.0,
Khanh Linh Hotel,https://www.tripadvisor.com.vn/Hotel_Review-g303945-d10819616-Reviews-Khanh_Linh_Hotel-Ninh_Binh_Ninh_Binh_Province.html,ok_jsonld,0.0,0.0,,,,"#195, Xuan Thanh, Tan Thanh, Ninh Bình",,Việt Nam,0.0,0.0,
Khách Sạn Việt Trì Garden,https://www.tripadvisor.com.vn/Hotel_Review-g12866445-d15217920-Reviews-Viet_Tri_Garden_Hotel-Viet_Tri_Phu_Tho_Province.html,ok_jsonld,0.0,0.0,,,,"368 đường Nguyễn Tất Thành Trung Vuong, Viet Tri",,Việt Nam,0.0,0.0,
Anh Thu Hotel,https://www.tripadvisor.com.vn/Hotel_Review-g303942-d6771568-Reviews-Anh_Thu_Hotel-Can_Tho_Mekong_Delta.html,ok_jsonld,2.8,4.0,,,,"Le Loi Avenue, Cần Thơ",,Việt Nam,0.0,0.0,
My Linh Hotel,https://www.tripadvisor.com.vn/Hotel_Review-g608528-d3236221-Reviews-My_Linh_Hotel-Quy_Nhon_Binh_Dinh_Province.html,ok_jsonld,2.6,5.0,,,,88 XuanDieu street,,Việt Nam,0.0,0.0,
Ha Giang City Hostel,https://www.tripadvisor.com.vn/Hotel_Review-g1544599-d28109000-Reviews-Ha_Giang_City_Hostel-Ha_Giang_Ha_Giang_Province.html,ok_jsonld,5.0,40.0,,,,"No 74 Lam Dong Village, Phuong Thien Commune, Ha Giang No 74 Lam Dong Village, Phuong Thien Commune, Ha Giang, Hà Giang",,Việt Nam,0.0,0.0,
Khách Sạn Zalo Sea Đà Nẵng,https://www.tripadvisor.com.vn/Hotel_Review-g298085-d12118099-Reviews-Zalo_Sea_Hotel_Da_Nang-Da_Nang.html,ok_jsonld,2.8,4.0,315789.0,684211.0,500000.0,"36 Mỹ Khê 4, Phường Phước Mỹ, Quận Sơn Trà",,Việt Nam,0.0,0.0,
Luca Hoi An Homestay,https://www.tripadvisor.com.vn/Hotel_Review-g298082-d17161114-Reviews-Luca_Hoi_An_Homestay-Hoi_An_Quang_Nam_Province.html,ok_jsonld,5.0,1.0,,,,04 Phạm Văn Đồng,,Việt Nam,0.0,0.0,
Pine Hill Hotel Dalat,https://www.tripadvisor.com.vn/Hotel_Review-g293922-d33983372-Reviews-Pine_Hill_Hotel_Dalat-Da_Lat_Lam_Dong_Province.html,ok_jsonld,0.0,0.0,289474.0,657895.0,473684.5,"49 Duong Ha Huy Tap, Phuong 3, Đà Lạt",,Việt Nam,0.0,0.0,
Pho Hien Hotel,https://www.tripadvisor.com.vn/Hotel_Review-g303946-d4875351-Reviews-Pho_Hien_Hotel-Vung_Tau_Ba_Ria_Vung_Tau_Province.html,ok_jsonld,0.0,0.0,,,,"258 Truong Cong Dinh Street, Ward 3, Vũng Tàu",,Việt Nam,0.0,0.0,
Okada Manila,https://www.tripadvisor.com.vn/Hotel_Review-g312693-d12412743-Reviews-Okada_Manila-Paranaque_Metro_Manila_Luzon.html,ok_jsonld,4.6,2705.0,5157895.0,9447368.0,7302631.5,"New Seaside Drive Entertainment City, Paranaque",,Việt Nam,0.0,0.0,
Beijing Hotel,https://www.tripadvisor.com.vn/Hotel_Review-g1554764-d4036907-Reviews-Beijing_Hotel-Vinh_Nghe_An_Province.html,ok_jsonld,3.2,6.0,,,,"110 Mai Hac De street, Vinh",,Việt Nam,0.0,0.0,
Comay Sapa House,https://www.tripadvisor.com.vn/Hotel_Review-g311304-d33161015-Reviews-Comay_Sapa_House-Sapa_Lao_Cai_Province.html,ok_jsonld,5.0,1.0,473684.0,1289474.0,881579.0,"21a Thac Bac, Sapa",,Việt Nam,0.0,0.0,
Ha Noi Calido Hotel,https://www.tripadvisor.com.vn/Hotel_Review-g293924-d25065060-Reviews-Ha_Noi_Calido_Hotel-Hanoi.html,ok_jsonld,4.7,69.0,815789.0,1842105.0,1328947.0,"16 P. Nguyễn Quang Bích, Cửa Đông, Hoàn Kiếm Hoan Kiem",,Việt Nam,0.0,0.0,
La Serena Boutique Hotel,https://www.tripadvisor.com.vn/Hotel_Review-g293925-d27717672-Reviews-La_Serena_Boutique_Hotel-Ho_Chi_Minh_City.html,ok_jsonld,5.0,8.0,657895.0,1052632.0,855263.5,"16 - 18 Hung Phuoc 4 Tan Phong, District 7, Thành phố Hồ Chí Minh",,Việt Nam,0.0,0.0,
La Casona Hotel,https://www.tripadvisor.com.vn/Hotel_Review-g293925-d24971338-Reviews-La_Casona_Hotel-Ho_Chi_Minh_City.html,ok_jsonld,5.0,7.0,605263.0,1105263.0,855263.0,"9-11 Đường Nội Khu, Hưng Gia 3, Hưng, P, Quận 7, Thành phố Hồ Chí Minh",,Việt Nam,0.0,0.0,
Dhts Business Hotel & Apartment,https://www.tripadvisor.com.vn/Hotel_Review-g293925-d22851088-Reviews-DHTS_Business_Hotel_Apartment-Ho_Chi_Minh_City.html,ok_jsonld,4.6,9.0,1473684.0,3657895.0,2565789.5,"38/16 Đ. Nguyễn Văn Trỗi Phường 15, Thành phố Hồ Chí Minh",,Việt Nam,0.0,0.0,
Khu dân cư SABINA - TP.HCM,https://www.tripadvisor.com.vn/Hotel_Review-g293925-d14156173-Reviews-SABINA_Residence_HCM-Ho_Chi_Minh_City.html,ok_jsonld,4.7,11.0,578947.0,1131579.0,855263.0,"32 Khu Phổ Hưng Gia 1, Tân Phong, Quận 7 Tân Phong, Quận 7, Thành phố Hồ Chí Minh",,Việt Nam,0.0,0.0,
Homestead Parkview,https://www.tripadvisor.com.vn/Hotel_Review-g293925-d7108049-Reviews-Homestead_Parkview-Ho_Chi_Minh_City.html,ok_jsonld,4.1,249.0,2157895.0,4105263.0,3131579.0,"149-151 Nguyen Du st, Ben Thanh ward, District 1 Ben Thanh Market, Thành phố Hồ Chí Minh",,Việt Nam,0.0,0.0,
Suzu Saigon Hotel,https://www.tripadvisor.com.vn/Hotel_Review-g293925-d32983845-Reviews-Suzu_Saigon_Hotel-Ho_Chi_Minh_City.html,ok_jsonld,4.5,4.0,2052632.0,2605263.0,2328947.5,"16 Ngô Văn Năm District 1, Thành phố Hồ Chí Minh",,Việt Nam,0.0,0.0,
Aurora Serviced Apartments,https://www.tripadvisor.com.vn/Hotel_Review-g293925-d13984372-Reviews-Aurora_Serviced_Apartments-Ho_Chi_Minh_City.html,ok_jsonld,4.7,16.0,1052632.0,1763158.0,1407895.0,"103 Võ Văn Tần Phường 6, Quận 3, Thành phố Hồ Chí Minh",,Việt Nam,0.0,0.0,
Cherry Hotel,https://www.tripadvisor.com.vn/Hotel_Review-g293925-d1657038-Reviews-Cherry_Hotel-Ho_Chi_Minh_City.html,ok_jsonld,3.7,52.0,1078947.0,2763158.0,1921052.5,"8A/8D2 Thai Van Lung, P. Ben Nghe Quan 1, Thành phố Hồ Chí Minh",,Việt Nam,0.0,0.0,
Jan Hostel Central Point,https://www.tripadvisor.com.vn/Hotel_Review-g293925-d26628547-Reviews-Jan_Hostel_Central_Point-Ho_Chi_Minh_City.html,ok_jsonld,4.6,7.0,500000.0,1447368.0,973684.0,"100/25/2 Đ. Trần Hưng Đạo, Thành phố Hồ Chí Minh",,Việt Nam,0.0,0.0,
Spotlight Hotel,https://www.tripadvisor.com.vn/Hotel_Review-g293925-d13384611-Reviews-Spotlight_Hotel-Ho_Chi_Minh_City.html,ok_jsonld,4.4,29.0,578947.0,1000000.0,789473.5,"184 Cong Quynh, Thành phố Hồ Chí Minh",,Việt Nam,0.0,0.0,
Saigon 1979 Hotel,https://www.tripadvisor.com.vn/Hotel_Review-g293925-d20289933-Reviews-Saigon_1979_Hotel-Ho_Chi_Minh_City.html,ok_jsonld,4.4,12.0,473684.0,4894737.0,2684210.5,"190 Cong Quynh Phuong Pham Ngu Lao, Quan 1, Thành phố Hồ Chí Minh",,Việt Nam,0.0,0.0,
CityHouse - Nest Metro Thao Đien,https://www.tripadvisor.com.vn/Hotel_Review-g293925-d33706402-Reviews-CityHouse_Nest_Metro_Thao_Dien-Ho_Chi_Minh_City.html,ok_jsonld,5.0,4.0,842105.0,1789474.0,1315789.5,"53A Đường Võ Nguyên Giáp, Thành phố Hồ Chí Minh",,Việt Nam,0.0,0.0,
Khách sạn Hoàng Yến,https://www.tripadvisor.com.vn/Hotel_Review-g293925-d3377510-Reviews-Hoang_Yen_Hotel-Ho_Chi_Minh_City.html,ok_jsonld,5.0,2.0,473684.0,947368.0,710526.0,"R4 62-63-64 Hưng Gia 2 Phường Tân Phong, Quận 7, Thành phố Hồ Chí Minh",,Việt Nam,0.0,0.0,
Khách sạn Sài Gòn Park,https://www.tripadvisor.com.vn/Hotel_Review-g293925-d13947310-Reviews-Saigon_Park_Hotel-Ho_Chi_Minh_City.html,ok_jsonld,3.5,6.0,526316.0,1000000.0,763158.0,"27 Nguyễn Văn Tráng Ben Thanh Ward, Dist. 1, Thành phố Hồ Chí Minh",,Việt Nam,0.0,0.0,
Acnos Hotel,https://www.tripadvisor.com.vn/Hotel_Review-g293925-d25314653-Reviews-Acnos_Hotel-Ho_Chi_Minh_City.html,ok_jsonld,5.0,1.0,1263158.0,1842105.0,1552631.5,"18-20 Nguyen Thi Nghia Phuong Ben Thanh, Quan 1, Thành phố Hồ Chí Minh",,Việt Nam,0.0,0.0,
Khách sạn Sophia,https://www.tripadvisor.com.vn/Hotel_Review-g293925-d1471478-Reviews-Sophia_Hotel-Ho_Chi_Minh_City.html,ok_jsonld,3.8,299.0,2710526.0,4868421.0,3789473.5,"36 - 38 Thai Van Lung, Ben Nghe Ward, Dist.1, Thành phố Hồ Chí Minh",,Việt Nam,0.0,0.0,
Saigon Chill Hostel,https://www.tripadvisor.com.vn/Hotel_Review-g293925-d26267751-Reviews-Saigon_Chill_Hostel-Ho_Chi_Minh_City.html,ok_jsonld,5.0,3.0,368421.0,1342105.0,855263.0,"28/10 Đ. Bùi Viện, Phường Phạm Ngũ Lão, Quận 1, Thành phố Hồ Chí Minh",,Việt Nam,0.0,0.0,
Chez Lotus,https://www.tripadvisor.com.vn/Hotel_Review-g293925-d9861911-Reviews-Chez_Lotus-Ho_Chi_Minh_City.html,ok_jsonld,4.8,227.0,447368.0,736842.0,592105.0,"Số 15, Đường 48 Phường 3, Quận 4, Thành phố Hồ Chí Minh",,Việt Nam,0.0,0.0,
Diamond Luxury Benthanh,https://www.tripadvisor.com.vn/Hotel_Review-g293925-d12622539-Reviews-Diamond_Luxury_Benthanh-Ho_Chi_Minh_City.html,ok_jsonld,4.6,60.0,1105263.0,4236842.0,2671052.5,"100/6 Lê Thị Hồng Gấm, Thành phố Hồ Chí Minh",,Việt Nam,0.0,0.0,
SoLex Hotel,https://www.tripadvisor.com.vn/Hotel_Review-g293925-d13338607-Reviews-SoLex_Hotel-Ho_Chi_Minh_City.html,ok_jsonld,4.3,18.0,842105.0,1105263.0,973684.0,"31 Núi Thành Phường 13 , Quận Tân Bình., Thành phố Hồ Chí Minh",,Việt Nam,0.0,0.0,
A25 Hotel - 29 Bùi Thị Xuân,https://www.tripadvisor.com.vn/Hotel_Review-g293925-d1655846-Reviews-L_Harmonie_Hotel-Ho_Chi_Minh_City.html,ok_jsonld,3.4,136.0,1000000.0,1789474.0,1394737.0,"29-31 Bui Thi Xuan, Thành phố Hồ Chí Minh",,Việt Nam,0.0,0.0,
Scenic Valley Suite,https://www.tripadvisor.com.vn/Hotel_Review-g293925-d19175044-Reviews-Scenic_Valley_Suite-Ho_Chi_Minh_City.html,ok_jsonld,4.0,4.0,1368421.0,2315789.0,1842105.0,"Block F, Scenic Valley 1, Thành phố Hồ Chí Minh",,Việt Nam,0.0,0.0,
Blue Diamond Hotel,https://www.tripadvisor.com.vn/Hotel_Review-g293925-d1726719-Reviews-Blue_Diamond_Hotel-Ho_Chi_Minh_City.html,ok_jsonld,3.9,856.0,1315789.0,2210526.0,1763157.5,"48 - 50 Thu Khoa Huan Ben Thanh Ward, District 1, Thành phố Hồ Chí Minh",,Việt Nam,0.0,0.0,
The Mars Hotel Saigon Airport,https://www.tripadvisor.com.vn/Hotel_Review-g293925-d20051695-Reviews-The_Mars_Hotel_Saigon_Airport-Ho_Chi_Minh_City.html,ok_jsonld,4.5,6.0,421053.0,947368.0,684210.5,"25/22 Cửu Long Phường 2, Tân Bình, Thành phố Hồ Chí Minh",,Việt Nam,0.0,0.0,
