hotelId,hotelName,star,reviewScore,reviewScoreText,reviewCount,cityId,cityName,districtId,districtName,latitude,longitude,nearbyLandmark,minPrice,avgPrice,originalPrice,currency,roomsLeft,lastBookedText,buttonContent,isSoldOut,hotelType
130031563,KHÁCH SẠN MlLAN(HOTEL MlLAN),0,,,,94122,Dĩ An,,,10.889652,106.773965,Dĩ An,,,,VND,,,Xem Phòng Trống,No,NORMAL
118951053,Hoa Hồng Hotel Ho Chi Minh City(Hoa Hong Hotel HCMC),3,7.1,,12,301,TP. Hồ Chí Minh,,,10.780123,106.623752,"Gần Hoa Nắng Spa, 958/37 Âu cơ, phường 14, Tân Bình, Thành phố Hồ Chí Minh",,,,VND,,,Xem Phòng Trống,No,NORMAL
10672720,Khách sạn Venus(Venus Hotel),2,8.1,Rất Tốt,86,301,TP. Hồ Chí Minh,,,10.83808,106.65261,Gần Trung Tâm Triển Lãm Hội Nghị Quốc Tế Sky Expo Việt Nam,,,,VND,,,Xem Phòng Trống,No,NORMAL
130895199,Bộ sưu tập O Sunrise Hotel Trung Sơn gần Lotte Mart(Collection O Sunrise Hotel Trung Son Near Lotte Mart),3,7.0,,61,301,TP. Hồ Chí Minh,,,10.732419,106.690171,Gần Trung tâm Hội chợ và Triển lãm Sài Gòn,,,,VND,,,Xem Phòng Trống,No,NORMAL
714439,Hotel Avatar(Avatar hotel),2,8.6,Rất Tốt,2,301,TP. Hồ Chí Minh,,,10.786471,106.634555,"Gần Hoa Nắng Spa, 958/37 Âu cơ, phường 14, Tân Bình, Thành phố Hồ Chí Minh",,,,VND,,,Xem Phòng Trống,No,NORMAL
132855281,Thuận Phát Motel(Thuan Phat Motel),0,,,,77118,Thị xã Thuận An,,,10.942508,106.71993,Thị xã Thuận An,,,,VND,,,Xem Phòng Trống,No,NORMAL
10051616,Khách sạn Long Sơn(Long Son Hotel),2,2.5,,2,301,TP. Hồ Chí Minh,,,10.773659,106.655933,Gần Trung tâm Văn hóa Hòa Bình Quận 10,,,,VND,,,Xem Phòng Trống,No,NORMAL
132929704,Collection O Duc Dat Hotel - Go Vap District(Collection O Duc Dat Hotel - Go Vap District),3,,,,301,TP. Hồ Chí Minh,,,10.839386,106.647426,Gần Trung Tâm Triển Lãm Hội Nghị Quốc Tế Sky Expo Việt Nam,,,,VND,,,Xem Phòng Trống,No,NORMAL
132170037,Hà Đan Hotel - Bãi Sau Vũng Tàu(Ha Dan Hotel - Bai Sau Vung Tau),2,8.2,Rất Tốt,1,7529,Vũng Tàu,,,10.33876,107.088988,"Gần Tượng đài Chúa Kitô | Trung tâm Vũng Tàu, Vũng Tàu",,,,VND,,,Xem Phòng Trống,No,NORMAL
101235994,3H GRAND HOTEL(3H GRAND HOTEL),3,7.8,Tốt,33,7529,Vũng Tàu,,,10.330189,107.084646,"Gần Tượng đài Chúa Kitô | Trung tâm Vũng Tàu, Vũng Tàu",,,,VND,,,Xem Phòng Trống,No,NORMAL
22222044,Tomorrow Hostel Vũng Tàu - Tomorrow Homestay(Tomorrow Hostel Vung Tau - Tomorrow Homestay),3,8.3,Rất Tốt,21,7529,Vũng Tàu,,,10.344452,107.07993,"Gần Tượng đài Chúa Kitô | Trung tâm Vũng Tàu, Vũng Tàu",,,,VND,,,Xem Phòng Trống,No,NORMAL
73239181,Sun Hill Hotel(Sun Hill Hotel),3,8.7,Rất Tốt,41,7529,Vũng Tàu,,,10.336007,107.081577,"Gần Tượng đài Chúa Kitô | Trung tâm Vũng Tàu, Vũng Tàu",,,,VND,,,Xem Phòng Trống,No,NORMAL
71391746,Khách Sạn Đại An Bình Tân(Dai An Binh Tan Hotel),2,6.5,,15,301,TP. Hồ Chí Minh,,,10.814904,106.59798,"Cách trung tâm 11,5km",,,,VND,,,Xem Phòng Trống,No,NORMAL
119974120,COLE APARTMENT & HOTEL(COLE APARTMENT & HOTEL),3,9.5,Đáng Kinh Ngạc,2,301,TP. Hồ Chí Minh,,,10.828283,106.639948,"Gần Cc Thái An, Nguyễn Văn Quá, Phường Đông Hưng Thuận, Quận 12, TP Ho Chi Minh | Khu vực sân bay quốc tế Tân Sơn Nhất",,,,VND,,,Xem Phòng Trống,No,NORMAL
118611895,Khách Sạn Bảo Long Riverside(Bao Long Riverside Hotel),2,8.4,Rất Tốt,8,301,TP. Hồ Chí Minh,,,10.831216,106.690768,Gần Cảng hàng không Quốc tế Tân Sơn Nhất,,,,VND,,,Xem Phòng Trống,No,NORMAL
132621627,Hotel Anh Đức 2(Hotel Anh Duc 2),0,,,,456628,Chánh Nghĩa,,,10.971271,106.665416,Chánh Nghĩa,,,,VND,,,Xem Phòng Trống,No,NORMAL
92191813,Khách sạn The Shilla Luxury I(The Shilla Luxury I Hotel-더신라럭셔리호텔),2,9.0,Tuyệt Vời,111,301,TP. Hồ Chí Minh,,,10.732749,106.707384,Gần Trung tâm Hội chợ và Triển lãm Sài Gòn | Phú Mỹ Hưng,,,,VND,,,Xem Phòng Trống,No,NORMAL
125179043,Yoyo Airport Saigon Hotel(Yoyo Airport Saigon Hotel),3,8.5,Rất Tốt,88,301,TP. Hồ Chí Minh,,,10.801349,106.66202,Gần Cảng hàng không Quốc tế Tân Sơn Nhất,,,,VND,,,Xem Phòng Trống,No,NORMAL
47157114,Khách sạn HappyHome(Happy Home),3,6.9,,59,301,TP. Hồ Chí Minh,,,10.742479,106.722978,Gần Trung tâm Hội chợ và Triển lãm Sài Gòn,,,,VND,,,Xem Phòng Trống,No,NORMAL
101241198,Joi Hospitality - Central(Joi Hospitality - Central),3,8.7,Rất Tốt,51,7529,Vũng Tàu,,,10.349585,107.084982,"Gần Tượng đài Chúa Kitô | Trung tâm Vũng Tàu, Vũng Tàu",,,,VND,,,Xem Phòng Trống,No,NORMAL
128772681,Thanh Tùng Hotel(Thanh Tung Hotel),0,7.0,,,301,TP. Hồ Chí Minh,,,10.820088,106.760566,Gần Ga Tàu Điện Ngầm Phước Long,,,,VND,,,Xem Phòng Trống,No,NORMAL
2845759,Khách sạn Biển Sao(Bien Sao Hotel),2,3.1,,2,301,TP. Hồ Chí Minh,,,10.837686,106.646309,Gần Trung Tâm Triển Lãm Hội Nghị Quốc Tế Sky Expo Việt Nam | Khu vực sân bay quốc tế Tân Sơn Nhất,,,,VND,,,Xem Phòng Trống,No,NORMAL
112863127,Khách sạn Thành Vinh(Thanh Vinh hotel & apartments),3,7.3,,18,301,TP. Hồ Chí Minh,,,10.829104,106.763104,Gần Ga Tàu Điện Ngầm Phước Long,,,,VND,,,Xem Phòng Trống,No,NORMAL
10604810,Khách Sạn Đại Dương Vũng Tàu(Oceanic Hotel Vung Tau),2,8.3,Rất Tốt,,7529,Vũng Tàu,,,10.337377,107.089337,"Gần Tượng đài Chúa Kitô | Trung tâm Vũng Tàu, Vũng Tàu",,,,VND,,,Xem Phòng Trống,No,NORMAL
6283210,Khách sạn Sazi Erato - Miễn phí Sân bay & Ăn sáng(SAZI Erato Hotel - Free Airport & Breakfast),2,8.2,Rất Tốt,208,301,TP. Hồ Chí Minh,,,10.813194,106.667846,Gần Cảng hàng không Quốc tế Tân Sơn Nhất | Khu vực sân bay quốc tế Tân Sơn Nhất,,,,VND,,,Xem Phòng Trống,No,NORMAL
102738961,Aria Reasort - BlueShaphire Căn hộ - Villa nghỉ dưỡng giáp biển Vũng Tàu(Aria Reasort - BlueShaphire Apartment - Villa),4,6.3,,,7529,Vũng Tàu,,,10.3747,107.127033,"Phường 10, Vũng Tàu",,,,VND,,,Xem Phòng Trống,No,NORMAL
109834502,Lotus Airport Hotel Saigon(Lotus Airport Hotel Saigon),3,8.7,Rất Tốt,39,301,TP. Hồ Chí Minh,,,10.814252,106.669238,Gần Cảng hàng không Quốc tế Tân Sơn Nhất | Khu vực sân bay quốc tế Tân Sơn Nhất,,,,VND,,,Xem Phòng Trống,No,NORMAL
5467815,HOTEL HẠNH LONG 1(Hanh Long  Hotel),2,7.8,Tốt,42,301,TP. Hồ Chí Minh,,,10.753601,106.675411,Gần Phạm Ngũ Lão,,,,VND,,,Xem Phòng Trống,No,NORMAL
2100134,Yen Nam Hotel Nguyen Trong Tuyen(Yen Nam Hotel Nguyen Trong Tuyen),3,8.1,Rất Tốt,65,301,TP. Hồ Chí Minh,,,10.79704,106.674894,Gần Cảng hàng không Quốc tế Tân Sơn Nhất,,,,VND,,,Xem Phòng Trống,No,NORMAL
12492816,Joi Boutique Bãi Trước(Joi Boutique Bai Truoc),4,8.0,Rất Tốt,28,7529,Vũng Tàu,,,10.345531,107.077055,"Gần Tượng đài Chúa Kitô | Trung tâm Vũng Tàu, Vũng Tàu",,,,VND,,,Xem Phòng Trống,No,NORMAL
22156069,Ha My Hotel(Ha My Hotel),2,7.5,,7,301,TP. Hồ Chí Minh,,,10.857785,106.764523,Gần Ga Tàu Điện Ngầm Thủ Đức | Linh Trung EPZ,,,,VND,,,Xem Phòng Trống,No,NORMAL
130834836,"Peanuts Home - Trung tâm TP.HCM, 5 phút tới Bùi Viện | Full Amenities(Peanuts Home - Central HCM, 5 mins to Bui Vien | Full Amenities)",3,9.0,Tuyệt Vời,12,301,TP. Hồ Chí Minh,,,10.76298,106.696317,Gần Phạm Ngũ Lão | Ven sông Bạch Đằng,,,,VND,,,Xem Phòng Trống,No,NORMAL
115803672,Haven Hut Riverside Hotel(Haven Hut Riverside Hotel),2,8.0,Rất Tốt,92,301,TP. Hồ Chí Minh,,,10.753389,106.70744,Gần Phạm Ngũ Lão,,,,VND,,,Xem Phòng Trống,No,NORMAL
10450549,Khách sạn Nhà Xuân(SPRING HOUSE HOTEL),3,8.0,Rất Tốt,232,301,TP. Hồ Chí Minh,,,10.768359,106.692701,Gần Phạm Ngũ Lão | Khu Tây ba lô,,,,VND,,,Xem Phòng Trống,No,NORMAL
29213185,Khách sạn Victory Airport(Victory Airport Hotel),3,8.4,Rất Tốt,242,301,TP. Hồ Chí Minh,,,10.812823,106.668483,Gần Cảng hàng không Quốc tế Tân Sơn Nhất | Khu vực sân bay quốc tế Tân Sơn Nhất,,,,VND,,,Xem Phòng Trống,No,NORMAL
132852461,Hạ Vy Hotel(Ha Vy Hotel),0,,,,301,TP. Hồ Chí Minh,,,10.857655,106.813279,Gần Ga Tàu Điện Ngầm Bến xe Suối Tiên,,,,VND,,,Xem Phòng Trống,No,NORMAL
11539612,Căn hộ Sang trọng Collection O Emerald – Gần SECC(Collection O Emerald Luxury Apartment - Near SECC),3,8.2,Rất Tốt,24,301,TP. Hồ Chí Minh,,,10.727231,106.705537,Gần Trung tâm Hội chợ và Triển lãm Sài Gòn | Phú Mỹ Hưng,,,,VND,,,Xem Phòng Trống,No,NORMAL
104486331,Joi Home The Hidden Villa(Joi Home The Hidden Villa),3,8.5,Rất Tốt,30,7529,Vũng Tàu,,,10.334731,107.082308,"Gần Tượng đài Chúa Kitô | Trung tâm Vũng Tàu, Vũng Tàu",,,,VND,,,Xem Phòng Trống,No,NORMAL
758730,Ramana Saigon Hotel(Ramana Saigon Hotel),4,8.1,Rất Tốt,288,301,TP. Hồ Chí Minh,,,10.787315,106.677558,Gần Ga Sài Gòn,,,,VND,,,Xem Phòng Trống,No,NORMAL
132956593,Khách sạn tình yêu(Couple In Love),4,10.0,Nổi Bật,,301,TP. Hồ Chí Minh,,,10.792303,106.641214,"Gần Hoa Nắng Spa, 958/37 Âu cơ, phường 14, Tân Bình, Thành phố Hồ Chí Minh",,,,VND,,,Xem Phòng Trống,No,NORMAL
124649305,Khách sạn Trường Giang(Hotel Truong Giang),2,8.6,Rất Tốt,2,94121,Thị xã Bến Cát,,,11.097476,106.638428,Thị xã Bến Cát,,,,VND,,,Xem Phòng Trống,No,NORMAL
125198219,Lunaria Maison - Thư Thái Homestay(Lunaria Maison - Thư Thái Homestay),2,8.2,Rất Tốt,23,301,TP. Hồ Chí Minh,,,10.783439,106.676754,Gần Ga Sài Gòn,,,,VND,,,Xem Phòng Trống,No,NORMAL
46152984,Coucou Homestead - I(Coucou Homestead - I),3,8.1,Rất Tốt,223,301,TP. Hồ Chí Minh,,,10.770227,106.690537,Gần Phạm Ngũ Lão | Trung tâm Thành phố Hồ Chí Minh,,,,VND,,,Xem Phòng Trống,No,NORMAL
713711,Khách sạn Đồng Khánh(Dong Khanh Hotel),3,8.2,Rất Tốt,264,301,TP. Hồ Chí Minh,,,10.753097,106.671794,Gần Luxury,,,,VND,,,Xem Phòng Trống,No,NORMAL
104485965,Joi Hospitality - Anthony(Joi Hospitality - Anthony),3,8.8,Rất Tốt,19,7529,Vũng Tàu,,,10.337457,107.082647,"Gần Tượng đài Chúa Kitô | Trung tâm Vũng Tàu, Vũng Tàu",,,,VND,,,Xem Phòng Trống,No,NORMAL
132582624,Phượng Hoàng Hotel(Phuong Hoang Hotel),3,8.7,Rất Tốt,,7529,Vũng Tàu,,,10.332465,107.089002,"Gần Tượng đài Chúa Kitô | Trung tâm Vũng Tàu, Vũng Tàu",,,,VND,,,Xem Phòng Trống,No,NORMAL
116835445,Yoko Airport Saigon Hotel(YoKo Airport Saigon Hotel),3,8.4,Rất Tốt,215,301,TP. Hồ Chí Minh,,,10.81275,106.668302,Gần Cảng hàng không Quốc tế Tân Sơn Nhất | Khu vực sân bay quốc tế Tân Sơn Nhất,,,,VND,,,Xem Phòng Trống,No,NORMAL
126838769,MEOW HOTEL & CAFE 3(MEOW HOTEL & CAFE 3),2,7.7,Tốt,45,301,TP. Hồ Chí Minh,,,10.767747,106.692485,Gần Phạm Ngũ Lão | Khu Phạm Ngũ Lão,,,,VND,,,Xem Phòng Trống,No,NORMAL
106750970,M Village Living Cửu Long(M Village Living Cuu Long),3,8.8,Rất Tốt,138,301,TP. Hồ Chí Minh,,,10.810242,106.667353,Gần Cảng hàng không Quốc tế Tân Sơn Nhất | Khu vực sân bay quốc tế Tân Sơn Nhất,,,,VND,,,Xem Phòng Trống,No,NORMAL
713788,S79 Vuon Saigon Hotel & Spa(S79 Vuon Saigon Hotel & Spa),3,8.7,Rất Tốt,93,301,TP. Hồ Chí Minh,,,10.772933,106.671497,Gần Phạm Ngũ Lão,,,,VND,,,Xem Phòng Trống,No,NORMAL
29994758,Cactusland Hotel & Apartment(Cactusland Hotel & Apartment),2,8.3,Rất Tốt,31,301,TP. Hồ Chí Minh,,,10.79584,106.673759,Gần Cảng hàng không Quốc tế Tân Sơn Nhất,,,,VND,,,Xem Phòng Trống,No,NORMAL
120439191,Khách Sạn Ngàn Lẻ  Một Đêm(Ngan Le Mot Dem Hotel),3,9.5,Đáng Kinh Ngạc,123,301,TP. Hồ Chí Minh,,,10.73884,106.691054,Gần Đường Bùi Viện,,,,VND,,,Xem Phòng Trống,No,NORMAL
102858282,Nhà của mẹ(Mother's Home),3,8.8,Rất Tốt,35,301,TP. Hồ Chí Minh,,,10.755383,106.694301,Gần Phạm Ngũ Lão,,,,VND,,,Xem Phòng Trống,No,NORMAL
114783879,Khách sạn & Căn hộ Atlas(Atlas Hotel & Apartments),3,8.2,Rất Tốt,61,301,TP. Hồ Chí Minh,,,10.729532,106.707004,Gần Trung tâm Hội chợ và Triển lãm Sài Gòn | Phú Mỹ Hưng,,,,VND,,,Xem Phòng Trống,No,NORMAL
100122709,Silk Hong Ha Airport Hotel(Silk Hong Ha Airport Hotel),3,8.3,Rất Tốt,8,301,TP. Hồ Chí Minh,,,10.81385,106.66994,Gần Cảng hàng không Quốc tế Tân Sơn Nhất | Khu vực sân bay quốc tế Tân Sơn Nhất,,,,VND,,,Xem Phòng Trống,No,NORMAL
5467434,Hoang Long Son 2(Hoang Long Son 2),2,7.9,Tốt,4,301,TP. Hồ Chí Minh,,,10.798591,106.733715,Gần Ga Tàu Điện Ngầm Thảo Điền | An Phú,,,,VND,,,Xem Phòng Trống,No,NORMAL
25730277,Citadines Central Binh Duong(Citadines Central Binh Duong),4,8.9,Rất Tốt,717,77118,Thị xã Thuận An,,,10.948065,106.706682,Thị xã Thuận An,,,,VND,,,Xem Phòng Trống,No,NORMAL
23781318,Khách sạn Thiên Cung(Thien Cung Hotel),2,7.5,,19,301,TP. Hồ Chí Minh,,,10.798495,106.649724,Gần Cảng hàng không Quốc tế Tân Sơn Nhất,,,,VND,,,Xem Phòng Trống,No,NORMAL
2192603,Valentine Hotel(Valentine Hotel Saigon - Bui Vien Street),3,7.3,,405,301,TP. Hồ Chí Minh,,,10.767241,106.693596,Gần Phạm Ngũ Lão | Khu Phạm Ngũ Lão,,,,VND,,,Xem Phòng Trống,No,NORMAL
130919685,M Home Saigon(M Home Saigon),3,8.8,Rất Tốt,10,301,TP. Hồ Chí Minh,,,10.788469,106.677709,Gần Ga Sài Gòn,,,,VND,,,Xem Phòng Trống,No,NORMAL
6313218,Khách Sạn Minh Tâm(Minh Tam Hotel and Spa),2,8.3,Rất Tốt,37,301,TP. Hồ Chí Minh,,,10.80213,106.646987,Gần Cảng hàng không Quốc tế Tân Sơn Nhất | Khu vực sân bay quốc tế Tân Sơn Nhất,,,,VND,,,Xem Phòng Trống,No,NORMAL
125201784,Căn Hộ The Sóng - Havilla Vũng Tàu(The Song Apartment - Havilla Vung Tau),3,9.2,Tuyệt Vời,89,7529,Vũng Tàu,,,10.350025,107.095862,"Gần Tượng đài Chúa Kitô | Trung tâm Vũng Tàu, Vũng Tàu",,,,VND,,,Xem Phòng Trống,No,NORMAL
107826871,The Royal LandPark - Phu My Hung(The Royal LandPark - Phu My Hung),2,8.0,Rất Tốt,92,301,TP. Hồ Chí Minh,,,10.732348,106.709387,Gần Trung tâm Hội chợ và Triển lãm Sài Gòn | Phú Mỹ Hưng,,,,VND,,,Xem Phòng Trống,No,NORMAL
113996498,KHÁCH SẠN LIKE(LIKE HOTEL),2,8.2,Rất Tốt,14,301,TP. Hồ Chí Minh,,,10.783514,106.619182,"Gần Hoa Nắng Spa, 958/37 Âu cơ, phường 14, Tân Bình, Thành phố Hồ Chí Minh",,,,VND,,,Xem Phòng Trống,No,NORMAL
92065255,S79 Hoa Huong Duong Hotel(S79 Hoa Huong Duong Hotel),3,7.8,Tốt,49,301,TP. Hồ Chí Minh,,,10.773154,106.671631,Gần Phạm Ngũ Lão,,,,VND,,,Xem Phòng Trống,No,NORMAL
110198433,Khách sạn Feliz Thủ Dầu Một(FELIZ Hotel - Executive Stay),3,8.9,Rất Tốt,43,456628,Chánh Nghĩa,,,10.972061,106.664331,Chánh Nghĩa,,,,VND,,,Xem Phòng Trống,No,NORMAL
26439578,Khách Sạn Aha Residence(Aha Residence Hotel),3,7.8,Tốt,36,301,TP. Hồ Chí Minh,,,10.79928,106.70669,Gần Landmark 81 Sky View Observatory | Hàng Xanh,,,,VND,,,Xem Phòng Trống,No,NORMAL
19644983,Royal Dragon Boutique Hotel Tan Binh(Royal Dragon Boutique Hotel Tan Binh),3,8.1,Rất Tốt,57,301,TP. Hồ Chí Minh,,,10.797267,106.660097,Gần Cảng hàng không Quốc tế Tân Sơn Nhất,,,,VND,,,Xem Phòng Trống,No,NORMAL
8989492,KHÁCH SẠN THIÊN HÀ - CÔNG TY TNHH THIÊN HÀ GALAXY(Thien Ha Hotel),2,9.0,Tuyệt Vời,25,77127,Thủ Dầu Một,,,10.971392,106.663879,"Gần Tp. Thủ Dầu Một, Thủ Dầu Một",,,,VND,,,Xem Phòng Trống,No,NORMAL
993079,Khách sạn Đệ Nhất(First Hotel),4,8.3,Rất Tốt,160,301,TP. Hồ Chí Minh,,,10.795773,106.659632,Gần Cảng hàng không Quốc tế Tân Sơn Nhất,,,,VND,,,Xem Phòng Trống,No,NORMAL
68010655,"Wink Hotel Saigon Centre, Unscripted by Hyatt(Wink Hotel Saigon Centre, Unscripted by Hyatt)",4,8.8,Rất Tốt,648,301,TP. Hồ Chí Minh,,,10.791263,106.700486,Gần Phố Nhật Sài Gòn,,,,VND,,,Xem Phòng Trống,No,NORMAL
133005545,The Sun Avenue Residences(The Sun Avenue Serviced Apartment),4,8.6,Rất Tốt,,301,TP. Hồ Chí Minh,,,10.785559,106.749687,Gần Ga Tàu Điện Ngầm Rạch Chiếc | An Phú,,,,VND,,,Xem Phòng Trống,No,NORMAL
106475520,Cozrum Homes - Sonata Residence(Cozrum Homes - Sonata Residence),4,7.2,,606,301,TP. Hồ Chí Minh,,,10.737258,106.728647,Gần Trung tâm Hội chợ và Triển lãm Sài Gòn,,,,VND,,,Xem Phòng Trống,No,NORMAL
6346326,"Khách sạn Long Bảo Châu ( Thủ Dầu Một, Bình Dương )(Long Bao Chau Hotel ( Thu Dau Mot, Binh Duong ))",3,8.3,Rất Tốt,59,77127,Thủ Dầu Một,,,10.972514,106.663174,"Gần Tp. Thủ Dầu Một, Thủ Dầu Một",,,,VND,,,Xem Phòng Trống,No,NORMAL
105187427,Khách sạn HANZ T68(HANZ T68 Hotel),3,7.9,Tốt,32,301,TP. Hồ Chí Minh,,,10.84434,106.64753,Gần Trung Tâm Triển Lãm Hội Nghị Quốc Tế Sky Expo Việt Nam,,,,VND,,,Xem Phòng Trống,No,NORMAL
91863514,La Casona Boutique Hotel(La Casona Hotel),3,8.4,Rất Tốt,49,301,TP. Hồ Chí Minh,,,10.732424,106.709903,Gần Trung tâm Hội chợ và Triển lãm Sài Gòn | Phú Mỹ Hưng,,,,VND,,,Xem Phòng Trống,No,NORMAL
123259174,Hoàng Quân Hotel - Gò Vấp(Hoang Quan Hotel - Go Vap),3,7.7,Tốt,31,301,TP. Hồ Chí Minh,,,10.838992,106.680438,Gần Cảng hàng không Quốc tế Tân Sơn Nhất,,,,VND,,,Xem Phòng Trống,No,NORMAL
5707665,Khách sạn Lan Anh(Lan Anh Hotel),3,8.3,Rất Tốt,73,301,TP. Hồ Chí Minh,,,10.768133,106.693698,Gần Phạm Ngũ Lão | Khu Phạm Ngũ Lão,,,,VND,,,Xem Phòng Trống,No,NORMAL
2198438,Khách sạn The Mira(The Mira Hotel),5,8.9,Rất Tốt,530,77127,Thủ Dầu Một,,,10.987022,106.664787,"Gần Tp. Thủ Dầu Một, Thủ Dầu Một",,,,VND,,,Xem Phòng Trống,No,NORMAL
123704319,Happy One Central(Happy One Central),3,9.2,Tuyệt Vời,65,77127,Thủ Dầu Một,,,10.97805,106.674622,"Gần Tp. Thủ Dầu Một, Thủ Dầu Một",,,,VND,,,Xem Phòng Trống,No,NORMAL
51933250,DIAMOND HOTEL Binh Duong(DIAMOND HOTEL BINH DUONG),3,8.5,Rất Tốt,70,456628,Chánh Nghĩa,,,10.972862,106.666035,Chánh Nghĩa,,,,VND,,,Xem Phòng Trống,No,NORMAL
80976459,Khách Sạn Truc Huyen(Truc Huyen Hotel),2,8.7,Rất Tốt,21,301,TP. Hồ Chí Minh,,,10.753592,106.6083,Gần AEON MALL Bình Tân,,,,VND,,,Xem Phòng Trống,No,NORMAL
91291743,Khach san Thao Trang Laluxe(Thao Trang Laluxe Hotel Phu My Hung),3,8.0,Rất Tốt,162,301,TP. Hồ Chí Minh,,,10.732051,106.708056,Gần Trung tâm Hội chợ và Triển lãm Sài Gòn | Phú Mỹ Hưng,,,,VND,,,Xem Phòng Trống,No,NORMAL
123796936,Collection O Khách sạn Sunshine Garden - Gần SECC(Collection O Sunshine Garden Hotel - Near SECC),3,7.1,,21,301,TP. Hồ Chí Minh,,,10.719328,106.733194,Gần Trung tâm Hội chợ và Triển lãm Sài Gòn,,,,VND,,,Xem Phòng Trống,No,NORMAL
713580,Khách sạn Green(Green Hotel Vung Tau),3,8.5,Rất Tốt,56,7529,Vũng Tàu,,,10.337483,107.090986,"Gần Tượng đài Chúa Kitô | Trung tâm Vũng Tàu, Vũng Tàu",,,,VND,,,Xem Phòng Trống,No,NORMAL
109509154,Shin's Apartment - The Sóng Vũng Tàu(Shin's Apartment - the Song Vung Tau),4,8.5,Rất Tốt,93,7529,Vũng Tàu,,,10.350025,107.095862,"Gần Tượng đài Chúa Kitô | Trung tâm Vũng Tàu, Vũng Tàu",,,,VND,,,Xem Phòng Trống,No,NORMAL
56927054,Thiem Thanh Hotel(Thiem Thanh Hotel),2,6.3,,17,301,TP. Hồ Chí Minh,,,10.810171,106.689774,Gần Cảng hàng không Quốc tế Tân Sơn Nhất,,,,VND,,,Xem Phòng Trống,No,NORMAL
707227,Khách sạn Mường Thanh Holiday Vũng Tàu(Muong Thanh Holiday Vung Tau),4,8.5,Rất Tốt,46,7529,Vũng Tàu,,,10.345894,107.075369,"Gần Tượng đài Chúa Kitô | Trung tâm Vũng Tàu, Vũng Tàu",,,,VND,,,Xem Phòng Trống,No,NORMAL
11367506,Khách Sạn Blue Airport(The Blue Airport Hotel),3,7.8,Tốt,134,301,TP. Hồ Chí Minh,,,10.80372,106.66217,Gần Cảng hàng không Quốc tế Tân Sơn Nhất | Khu vực sân bay quốc tế Tân Sơn Nhất,,,,VND,,,Xem Phòng Trống,No,NORMAL
128074084,Serenity River Saigon(Serenity River Saigon),3,8.7,Rất Tốt,17,301,TP. Hồ Chí Minh,,,10.79426,106.689524,Gần Nhà Thờ Giáo Xứ Tân Định,,,,VND,,,Xem Phòng Trống,No,NORMAL
70289216,Khách sạn Hoàng Hùng(Hoang Hung Hotel),3,8.8,Rất Tốt,13,94122,Dĩ An,,,10.893454,106.760323,Dĩ An,,,,VND,,,Xem Phòng Trống,No,NORMAL
8379101,VUON TAO DAN HOTEL (TRUNG TÂM THÀNH PHỐ GẦN CHỢ BẾN THÀNH)(VUON TAO DAN HOTEL (CITY CENTER NEAR BEN THANH MARKET)),2,7.8,Tốt,7,301,TP. Hồ Chí Minh,,,10.774562,106.690028,Gần Phạm Ngũ Lão,,,,VND,,,Xem Phòng Trống,No,NORMAL
111969561,Thiên Tài Hotel(Thien Tai Hotel),3,8.1,Rất Tốt,113,301,TP. Hồ Chí Minh,,,10.768664,106.684526,Gần Phạm Ngũ Lão,,,,VND,,,Xem Phòng Trống,No,NORMAL
10048617,Khách sạn Thiên Tứ Blessings(Thien Tu Blessings Hotel),2,7.7,Tốt,5,301,TP. Hồ Chí Minh,,,10.766752,106.693367,Gần Phạm Ngũ Lão | Khu Tây ba lô,,,,VND,,,Xem Phòng Trống,No,NORMAL
46184300,Khách sạn Sân Bay Havana Collection O(Collection O Havana Airport Hotel),3,6.8,,124,301,TP. Hồ Chí Minh,,,10.811038,106.666544,Gần Cảng hàng không Quốc tế Tân Sơn Nhất | Khu vực sân bay quốc tế Tân Sơn Nhất,,,,VND,,,Xem Phòng Trống,No,NORMAL
28823591,Khách sạn Imperial Saigon(Imperial Saigon Hotel),3,8.3,Rất Tốt,69,301,TP. Hồ Chí Minh,,,10.731429,106.709144,Gần Trung tâm Hội chợ và Triển lãm Sài Gòn | Phú Mỹ Hưng,,,,VND,,,Xem Phòng Trống,No,NORMAL
127059329,YÊN LUXURY HOTEL(YEN LUXURY HOTEL),3,9.0,Tuyệt Vời,4,7529,Vũng Tàu,,,10.359947,107.095953,"Trung tâm Vũng Tàu, Vũng Tàu",,,,VND,,,Xem Phòng Trống,No,NORMAL
69425757,Nin Garden Homestay(Nin Garden Homestay),3,8.9,Rất Tốt,19,7529,Vũng Tàu,,,10.331239,107.084984,"Gần Tượng đài Chúa Kitô | Trung tâm Vũng Tàu, Vũng Tàu",,,,VND,,,Xem Phòng Trống,No,NORMAL
1470387,Little Brick Saigon Hotel(Little Brick Saigon Hotel),2,8.3,Rất Tốt,137,301,TP. Hồ Chí Minh,,,10.772352,106.690537,Gần Phạm Ngũ Lão | Trung tâm Thành phố Hồ Chí Minh,,,,VND,,,Xem Phòng Trống,No,NORMAL
71504383,Khách sạn Aquatel(Aquatel Vung Tau),3,8.8,Rất Tốt,21,7529,Vũng Tàu,,,10.330503,107.084564,"Gần Tượng đài Chúa Kitô | Trung tâm Vũng Tàu, Vũng Tàu",,,,VND,,,Xem Phòng Trống,No,NORMAL
2199834,Central Hotel & Residences(Central Hotel & Residences Swimming Pool),3,8.1,Rất Tốt,176,301,TP. Hồ Chí Minh,,,10.729747,106.707306,Gần Trung tâm Hội chợ và Triển lãm Sài Gòn | Phú Mỹ Hưng,,,,VND,,,Xem Phòng Trống,No,NORMAL
124621442,House of 花Ren Bui Vien(House of Ren Bui Vien),3,7.6,Tốt,12,301,TP. Hồ Chí Minh,,,10.766715,106.691605,Gần Phạm Ngũ Lão | Khu Phạm Ngũ Lão,,,,VND,,,Xem Phòng Trống,No,NORMAL
110825813,Khách sạn Micasa(Micasa Hotel),3,7.1,,8,301,TP. Hồ Chí Minh,,,10.736983,106.69065,Gần Trường Đại học Sài Gòn,,,,VND,,,Xem Phòng Trống,No,NORMAL
15180553,GIC Hotel and Apartment(Gic Apartment and Hotel),3,7.1,,77,301,TP. Hồ Chí Minh,,,10.812719,106.666624,Gần Cảng hàng không Quốc tế Tân Sơn Nhất | Khu vực sân bay quốc tế Tân Sơn Nhất,,,,VND,,,Xem Phòng Trống,No,NORMAL
19866297,Cochin Zen Hotel(Cochin Zen Hotel),4,8.7,Rất Tốt,432,301,TP. Hồ Chí Minh,,,10.774508,106.696757,Gần Phạm Ngũ Lão | Trung tâm Thành phố Hồ Chí Minh,,,,VND,,,Xem Phòng Trống,No,NORMAL
3707399,Ngọc Hân Hotel By The Moment(Ngoc HAN Hotel by the Moment),2,7.6,Tốt,35,7529,Vũng Tàu,,,10.351804,107.100529,"Trung tâm Vũng Tàu, Vũng Tàu",,,,VND,,,Xem Phòng Trống,No,NORMAL
2510370,A25 Hotel - 06 Trương Định(A25 Hotel – 06 Truong Dinh),3,8.5,Rất Tốt,101,301,TP. Hồ Chí Minh,,,10.776501,106.691442,Gần Phạm Ngũ Lão,,,,VND,,,Xem Phòng Trống,No,NORMAL
91501496,Collection O Cozy 5 Hotel - Gần SECC(Collection O Cozy 5 Hotel - Near SECC),2,6.3,,75,301,TP. Hồ Chí Minh,,,10.733469,106.707858,Gần Trung tâm Hội chợ và Triển lãm Sài Gòn | Phú Mỹ Hưng,,,,VND,,,Xem Phòng Trống,No,NORMAL
129943316,PH Hotel酒店(PH Hotel(SECC  Phu My Hung)),3,8.5,Rất Tốt,91,301,TP. Hồ Chí Minh,,,10.732814,106.710214,Gần Trung tâm Hội chợ và Triển lãm Sài Gòn | Phú Mỹ Hưng,,,,VND,,,Xem Phòng Trống,No,NORMAL
110438218,The Emerald Golf View(The Emerald Golf View),4,9.2,Tuyệt Vời,190,77118,Thị xã Thuận An,,,10.925546,106.711925,Thị xã Thuận An,,,,VND,,,Xem Phòng Trống,No,NORMAL
116487231,La Bonita Hotel and Apartments(La Bonita Hotel and Apartments),3,8.8,Rất Tốt,59,301,TP. Hồ Chí Minh,,,10.72958,106.7079,Gần Trung tâm Hội chợ và Triển lãm Sài Gòn,,,,VND,,,Xem Phòng Trống,No,NORMAL
127319343,The Sóng Apartment 5 Star  Vũng Tàu - Mỹ Duyên(The Song Apartment 5 Star  Vung Tau - My Duyen),3,8.5,Rất Tốt,21,7529,Vũng Tàu,,,10.350025,107.095862,"Gần Tượng đài Chúa Kitô | Trung tâm Vũng Tàu, Vũng Tàu",,,,VND,,,Xem Phòng Trống,No,NORMAL
128057199,Cherysh Serviced Apartment(Cherysh Serviced Apartment),3,8.4,Rất Tốt,9,301,TP. Hồ Chí Minh,,,10.771995,106.693608,Gần Phạm Ngũ Lão | Trung tâm Thành phố Hồ Chí Minh,,,,VND,,,Xem Phòng Trống,No,NORMAL
128285687,Bandlive Hostel(Bandlive Backpacker Hostel),3,8.4,Rất Tốt,2,301,TP. Hồ Chí Minh,,,10.764641,106.687834,Gần Phạm Ngũ Lão,,,,VND,,,Xem Phòng Trống,No,NORMAL
123447877,Saigon Center Apartment -Vinh Hoi Aparment ( Central Stay)(Saigon Center Apartment -Vinh Hoi Aparment (Central Stay)),4,8.9,Rất Tốt,49,301,TP. Hồ Chí Minh,,,10.755784,106.701717,Gần Phạm Ngũ Lão,,,,VND,,,Xem Phòng Trống,No,NORMAL
128572898,Bắp's House - CSJ Apartment Vũng Tàu(Bap's House - CSJ Apartment Vung Tau),3,8.9,Rất Tốt,3,7529,Vũng Tàu,,,10.351009,107.099833,"Trung tâm Vũng Tàu, Vũng Tàu",,,,VND,,,Xem Phòng Trống,No,NORMAL
714534,Khách sạn Phan Anh - Phố đi bộ Bùi Viện(Phan Anh Hotel - Bui Vien Walking Street),2,8.4,Rất Tốt,33,301,TP. Hồ Chí Minh,,,10.766745,106.689441,Gần Phạm Ngũ Lão | Khu Phạm Ngũ Lão,,,,VND,,,Xem Phòng Trống,No,NORMAL
131955597,Lumière Vacation view Landmark 81 by Urban Home(Lumière Vacation view Landmark 81 by Urban Home),3,10.0,Nổi Bật,86,301,TP. Hồ Chí Minh,,,10.802089,106.74504,Gần Ga Tàu Điện Ngầm An Phú | An Phú,,,,VND,,,Xem Phòng Trống,No,NORMAL
107179079,Khách sạn Diamond(DIAMOND SUITE HOTEL),3,7.5,,30,301,TP. Hồ Chí Minh,,,10.732558,106.709086,Gần Trung tâm Hội chợ và Triển lãm Sài Gòn | Phú Mỹ Hưng,,,,VND,,,Xem Phòng Trống,No,NORMAL
126716730,Grand Park Hotel & Apartment Phu My Hung(Grand Park Hotel & Apartment Phu My Hung),3,8.7,Rất Tốt,20,301,TP. Hồ Chí Minh,,,10.731668,106.709627,Gần Trung tâm Hội chợ và Triển lãm Sài Gòn,,,,VND,,,Xem Phòng Trống,No,NORMAL
132130833,Lumière Urban Residence View Landmark 81(Lumière Urban Residence View Landmark 81),3,10.0,Nổi Bật,52,301,TP. Hồ Chí Minh,,,10.802089,106.74504,Gần Ga Tàu Điện Ngầm An Phú | An Phú,,,,VND,,,Xem Phòng Trống,No,NORMAL
131560802,Hoang Anh Star Boutique Hotel(Hoang Anh Star Boutique Hotel),2,7.5,,1,301,TP. Hồ Chí Minh,,,10.854784,106.610049,Gần Trung Tâm Triển Lãm Hội Nghị Quốc Tế Sky Expo Việt Nam,,,,VND,,,Xem Phòng Trống,No,NORMAL
122242886,The Passion Hotel Airport - 5 minutes to Tan Son Nhat(The Passion Hotel Airport - 5 minutes to Tan Son Nhat),3,7.5,,25,301,TP. Hồ Chí Minh,,,10.811667,106.669154,Gần Cảng hàng không Quốc tế Tân Sơn Nhất | Khu vực sân bay quốc tế Tân Sơn Nhất,,,,VND,,,Xem Phòng Trống,No,NORMAL
993081,Khách sạn Majestic Sài Gòn(Hotel Majestic Saigon),5,9.2,Tuyệt Vời,441,301,TP. Hồ Chí Minh,,,10.772778,106.706188,Gần Phố Nhật Sài Gòn | Khu Nguyễn Huệ,,,,VND,,,Xem Phòng Trống,No,NORMAL
95448700,Marie-Line Hotel(Marie-Line Hotel),2,8.1,Rất Tốt,49,301,TP. Hồ Chí Minh,,,10.767065,106.690939,Gần Phạm Ngũ Lão | Khu Phạm Ngũ Lão,,,,VND,,,Xem Phòng Trống,No,NORMAL
758766,Khách sạn Windsor Plaza(Windsor Plaza Hotel),5,8.9,Rất Tốt,1,301,TP. Hồ Chí Minh,,,10.757939,106.67357,Gần Phạm Ngũ Lão,,,,VND,,,Xem Phòng Trống,No,NORMAL
125410187,LyLy Hotel - Phạm Ngũ Lão(LyLy Hotel - Pham Ngu Lao),2,7.9,Tốt,24,301,TP. Hồ Chí Minh,,,10.767074,106.690858,Gần Phạm Ngũ Lão | Khu Phạm Ngũ Lão,,,,VND,,,Xem Phòng Trống,No,NORMAL
110606216,Phú Gia Hotel(Phu Gia Hotel),2,6.8,,1,301,TP. Hồ Chí Minh,,,10.705453,106.727442,Gần Trung tâm Hội chợ và Triển lãm Sài Gòn,,,,VND,,,Xem Phòng Trống,No,NORMAL
115585978,La Serena Boutique Hotel(La Serena Boutique Hotel),3,8.6,Rất Tốt,33,301,TP. Hồ Chí Minh,,,10.729822,106.707996,Gần Trung tâm Hội chợ và Triển lãm Sài Gòn | Phú Mỹ Hưng,,,,VND,,,Xem Phòng Trống,No,NORMAL
124507314,Khách sạn Ly Ly Sang Trọng(Ly Ly Luxury Hotel),3,8.8,Rất Tốt,44,301,TP. Hồ Chí Minh,,,10.747629,106.609853,Gần AEON MALL Bình Tân,,,,VND,,,Xem Phòng Trống,No,NORMAL
2869861,Old saigon Hotel (SECC Phu My Hung)(Old saigon),3,9.1,Tuyệt Vời,111,301,TP. Hồ Chí Minh,,,10.731927,106.708921,Gần Trung tâm Hội chợ và Triển lãm Sài Gòn | Phú Mỹ Hưng,,,,VND,,,Xem Phòng Trống,No,NORMAL
106193677,Phú Gia Hotel 1609 Huỳnh Tấn Phát(Phu Gia Hotel 1609 Huynh Tan Phat),2,6.5,,,301,TP. Hồ Chí Minh,,,10.70819,106.73745,Gần Trung tâm Hội chợ và Triển lãm Sài Gòn,,,,VND,,,Xem Phòng Trống,No,NORMAL
89229244,Khách sạn Gia An(Gia An Hotel),3,8.1,Rất Tốt,5,7529,Vũng Tàu,,,10.337076,107.090171,"Gần Tượng đài Chúa Kitô | Trung tâm Vũng Tàu, Vũng Tàu",,,,VND,,,Xem Phòng Trống,No,NORMAL
993104,Hotel Nikko Saigon(Hotel Nikko Saigon),5,9.4,Đáng Kinh Ngạc,1,301,TP. Hồ Chí Minh,,,10.764129,106.682928,Gần Phạm Ngũ Lão,,,,VND,,,Xem Phòng Trống,No,NORMAL
2495165,Phước Lộc Thọ 2 Hotel - 福禄寿酒店(Phuoc Loc Tho 2 Hotel),2,8.4,Rất Tốt,60,301,TP. Hồ Chí Minh,,,10.75905,106.673599,Gần Phạm Ngũ Lão,,,,VND,,,Xem Phòng Trống,No,NORMAL
103861594,The Song Apartment Vung Tau 5star-Free pool-Moon Homestay(Harry's Apartment  -The Song Vũng Tàu),4,9.2,Tuyệt Vời,39,7529,Vũng Tàu,,,10.350025,107.095862,"Gần Tượng đài Chúa Kitô | Trung tâm Vũng Tàu, Vũng Tàu",,,,VND,,,Xem Phòng Trống,No,NORMAL
6645976,Khách sạn Phoenix Vũng Tàu(Phoenix Hotel Vung Tau),3,8.6,Rất Tốt,52,7529,Vũng Tàu,,,10.349943,107.091913,"Gần Tượng đài Chúa Kitô | Trung tâm Vũng Tàu, Vũng Tàu",,,,VND,,,Xem Phòng Trống,No,NORMAL
23519757,Rivergate Central(Rivergate Central),4,8.8,Rất Tốt,157,301,TP. Hồ Chí Minh,,,10.762786,106.698649,Gần Phạm Ngũ Lão | Ven sông Bạch Đằng,,,,VND,,,Xem Phòng Trống,No,NORMAL
713677,Viet Lotus Saigon Hotel(Viet Lotus Saigon Hotel),4,8.1,Rất Tốt,58,301,TP. Hồ Chí Minh,,,10.769636,106.682425,Gần Phạm Ngũ Lão,,,,VND,,,Xem Phòng Trống,No,NORMAL
120410221,Vanilla Ho Tram Homestay(Vanilla Ho Tram Homestay),3,9.4,Đáng Kinh Ngạc,9,681904,Phước Thuận,,,10.4762,107.432237,"Gần Hồ Tràm, Phước Thuận",,,,VND,,,Xem Phòng Trống,No,NORMAL
111485408,Hilton Sài Gòn(Hilton Saigon),5,9.1,Tuyệt Vời,524,301,TP. Hồ Chí Minh,,,10.775048,106.705661,Gần Phố Nhật Sài Gòn | Khu Nguyễn Huệ,,,,VND,,,Xem Phòng Trống,No,NORMAL
710979,Khách sạn Eastin Grand Saigon(Eastin Grand Hotel Saigon),5,9.0,Tuyệt Vời,1,301,TP. Hồ Chí Minh,,,10.796273,106.6731,Gần Cảng hàng không Quốc tế Tân Sơn Nhất,,,,VND,,,Xem Phòng Trống,No,NORMAL
758751,Khách sạn Rex(Rex Hotel),5,8.6,Rất Tốt,238,301,TP. Hồ Chí Minh,,,10.77574,106.70141,Gần Phố Nhật Sài Gòn | Khu Nguyễn Huệ,,,,VND,,,Xem Phòng Trống,No,NORMAL
102364524,A In Hotel Del Luna(A In Hotel Del Luna),2,8.3,Rất Tốt,4,301,TP. Hồ Chí Minh,,,10.764882,106.695032,Gần Phạm Ngũ Lão,,,,VND,,,Xem Phòng Trống,No,NORMAL
110585808,Signature by M Village Lê Thánh Tôn(Signature by M Village Le Thanh Ton),5,8.9,Rất Tốt,893,301,TP. Hồ Chí Minh,,,10.78045,106.70435,Gần Phố Nhật Sài Gòn | Lê Thánh Tôn,,,,VND,,,Xem Phòng Trống,No,NORMAL
126489991,La Doma en Adagio - Sleep and Heal(La Doma en Adagio - Sleep and Heal),2,8.8,Rất Tốt,54,301,TP. Hồ Chí Minh,,,10.760061,106.692579,Gần Phạm Ngũ Lão,,,,VND,,,Xem Phòng Trống,No,NORMAL
113290340,"Nhà Của Min - Rivergate gần Bùi Viện , Trung Tâm(MIN' Apartment - Rivergate Residence Downtown BUI VIEN - FREE POOL)",4,8.8,Rất Tốt,299,301,TP. Hồ Chí Minh,,,10.762228,106.699147,Gần Phạm Ngũ Lão | Ven sông Bạch Đằng,,,,VND,,,Xem Phòng Trống,No,NORMAL
131304064,Thọ Lập 3 Feliz 寿立商旅酒店(THO LAP 3 HOTEL),3,9.6,Đáng Kinh Ngạc,6,77118,Thị xã Thuận An,,,10.9428,106.72797,Thị xã Thuận An,,,,VND,,,Xem Phòng Trống,No,NORMAL
124963358,The Shilla Hotel Phu My Hung(The Shilla Hotel Phu My Hung),2,9.0,Tuyệt Vời,74,301,TP. Hồ Chí Minh,,,10.732739,106.707318,Gần Trung tâm Hội chợ và Triển lãm Sài Gòn,,,,VND,,,Xem Phòng Trống,No,NORMAL
993221,Hotel Grand Saigon(Hotel Grand Saigon),5,9.0,Tuyệt Vời,669,301,TP. Hồ Chí Minh,,,10.774223,106.705345,Gần Phố Nhật Sài Gòn | Khu Nguyễn Huệ,,,,VND,,,Xem Phòng Trống,No,NORMAL
9238535,Cozy Hotel - 140 Cống Quỳnh(Cozy Hotel - 140 Cong Quynh),3,8.4,Rất Tốt,17,301,TP. Hồ Chí Minh,,,10.765592,106.690001,Gần Phạm Ngũ Lão | Khu Phạm Ngũ Lão,,,,VND,,,Xem Phòng Trống,No,NORMAL
91659052,Cochin Sang Hotel(Cochin Sang Hotel),4,8.7,Rất Tốt,309,301,TP. Hồ Chí Minh,,,10.771924,106.696964,Gần Phạm Ngũ Lão | Khu chợ Bến Thành,,,,VND,,,Xem Phòng Trống,No,NORMAL
702214,Alagon Saigon Hotel & Spa(Alagon Saigon Hotel & Spa),4,8.6,Rất Tốt,604,301,TP. Hồ Chí Minh,,,10.771774,106.694288,Gần Phạm Ngũ Lão | Trung tâm Thành phố Hồ Chí Minh,,,,VND,,,Xem Phòng Trống,No,NORMAL
28122847,Khách sạn & Căn hộ Airstar(Air Star Hotel),3,8.3,Rất Tốt,129,301,TP. Hồ Chí Minh,,,10.806691,106.664975,Gần Cảng hàng không Quốc tế Tân Sơn Nhất | Khu vực sân bay quốc tế Tân Sơn Nhất,,,,VND,,,Xem Phòng Trống,No,NORMAL
32373090,Khách sạn Hồng Bảo Thạch(Hong Bao Thach),3,9.1,Tuyệt Vời,9,301,TP. Hồ Chí Minh,,,10.755022,106.611684,Gần AEON MALL Bình Tân,,,,VND,,,Xem Phòng Trống,No,NORMAL
8337272,KHÁCH SẠN HẠNH PHÚC - TRUNG TÂM SÀI GÒN GẦN BÙI VIỆN(HANH PHUC HOTEL - CENTER OF SAIGON NEAR BUI VIEN STREET),2,7.7,Tốt,4,301,TP. Hồ Chí Minh,,,10.764592,106.687494,Gần Phạm Ngũ Lão,,,,VND,,,Xem Phòng Trống,No,NORMAL
117751139,El Ocaso Boutique Hotel(El Ocaso Boutique Hotel),3,9.2,Tuyệt Vời,22,301,TP. Hồ Chí Minh,,,10.731591,106.70773,Gần Trung tâm Hội chợ và Triển lãm Sài Gòn | Phú Mỹ Hưng,,,,VND,,,Xem Phòng Trống,No,NORMAL
132287158,A In Hotel Glamour(A In Hotel Glamour),2,9.6,Đáng Kinh Ngạc,2,301,TP. Hồ Chí Minh,,,10.798048,106.729726,Gần Landmark 81 Sky View Observatory,,,,VND,,,Xem Phòng Trống,No,NORMAL
48818083,Mermaid Seaside Hotel Vung Tau(Mermaid Seaside Hotel),4,8.3,Rất Tốt,99,7529,Vũng Tàu,,,10.3715,107.059193,"Phường 5, Vũng Tàu",,,,VND,,,Xem Phòng Trống,No,NORMAL
127646054,The Passion Lux Airport Hotel Apartment- Free Airport Transfer(The Passion Lux Airport Hotel Apartment - Free Airport Transfer),3,7.6,Tốt,25,301,TP. Hồ Chí Minh,,,10.800651,106.66043,Gần Cảng hàng không Quốc tế Tân Sơn Nhất,,,,VND,,,Xem Phòng Trống,No,NORMAL
122743518,CĂN HỘ DU LỊCH LANDMARK - Vinhomes Central Park(LANDMARK APARTMENTS in Vinhomes Central Park),3,8.5,Rất Tốt,255,301,TP. Hồ Chí Minh,,,10.792907,106.721692,Gần Landmark 81 Sky View Observatory | Công viên Vinhome Central Park,,,,VND,,,Xem Phòng Trống,No,NORMAL
114763000,Phú Gia 464 NVL(Phú Gia 464 Nguyen Van Linh),2,7.8,Tốt,3,301,TP. Hồ Chí Minh,,,10.7365,106.72123,Gần Trung tâm Hội chợ và Triển lãm Sài Gòn,,,,VND,,,Xem Phòng Trống,No,NORMAL
23510197,Sai Gon Hub Hostel & Bar(Sai Gon Hostel & Bar),2,6.7,,34,301,TP. Hồ Chí Minh,,,10.767491,106.691251,Gần Phạm Ngũ Lão | Khu Phạm Ngũ Lão,,,,VND,,,Xem Phòng Trống,No,NORMAL
130226852,Hạt Nắng Garden - Homestay & restaurant(Hat Nang Garden - Homestay & restaurant),2,9.1,Tuyệt Vời,9,301,TP. Hồ Chí Minh,,,10.813801,106.705837,Gần Ga Bình Triệu,,,,VND,,,Xem Phòng Trống,No,NORMAL
127373357,Townhouse District 10 Near Children Hospital 1 Formerly Cuong Thanh 3 Hotel(Townhouse District 10 Near Children Hospital 1 Formerly Cuong Thanh 3 Hotel),3,7.9,Tốt,41,301,TP. Hồ Chí Minh,,,10.774941,106.67545,Gần Phạm Ngũ Lão,,,,VND,,,Xem Phòng Trống,No,NORMAL
125575835,D Home 2(D Home 2),2,8.8,Rất Tốt,,301,TP. Hồ Chí Minh,,,10.762022,106.688324,Gần Phạm Ngũ Lão,,,,VND,,,Xem Phòng Trống,No,NORMAL
116452311,La Palma Boutique Hotel(La Palma Boutique Hotel),3,8.8,Rất Tốt,60,301,TP. Hồ Chí Minh,,,10.73144,106.70965,Gần Trung tâm Hội chợ và Triển lãm Sài Gòn,,,,VND,,,Xem Phòng Trống,No,NORMAL
78988087,Khách sạn S79 My My(S79 My My Hotel),3,7.8,Tốt,17,301,TP. Hồ Chí Minh,,,10.771492,106.66874,Gần Phạm Ngũ Lão,,,,VND,,,Xem Phòng Trống,No,NORMAL
116717450,Simmi 6 Hotel & Apartment(Simmi 6 Hotel & Apartment),3,8.8,Rất Tốt,11,301,TP. Hồ Chí Minh,,,10.732146,106.707685,Gần Trung tâm Hội chợ và Triển lãm Sài Gòn | Phú Mỹ Hưng,,,,VND,,,Xem Phòng Trống,No,NORMAL
100334466,Ken's House - The Sóng Condotel Vũng Tàu(Ken's House - The Sóng Condotel Vũng Tàu),4,8.2,Rất Tốt,31,7529,Vũng Tàu,,,10.349906,107.095968,"Gần Tượng đài Chúa Kitô | Trung tâm Vũng Tàu, Vũng Tàu",,,,VND,,,Xem Phòng Trống,No,NORMAL
120587497,Cozrum Homes - Spring Residence(Cozrum Homes - Spring Residence),3,7.5,,79,301,TP. Hồ Chí Minh,,,10.802974,106.716042,Gần Landmark 81 Sky View Observatory | Hàng Xanh,,,,VND,,,Xem Phòng Trống,No,NORMAL
713249,Khách sạn Boss Palace(Boss Palace Hotel),3,7.1,,41,301,TP. Hồ Chí Minh,,,10.77026,106.67708,Gần Phạm Ngũ Lão,,,,VND,,,Xem Phòng Trống,No,NORMAL
127422929,Cozrum Lux - Sonata Imperial(Cozrum Lux - Sonata Imperial),3,8.1,Rất Tốt,43,301,TP. Hồ Chí Minh,,,10.736784,106.728706,Gần Trung tâm Hội chợ và Triển lãm Sài Gòn,,,,VND,,,Xem Phòng Trống,No,NORMAL
64038162,Khách sạn Skool Plus Vũng Tàu(Skool Plus Vung Tau Hotel),4,9.1,Tuyệt Vời,46,7529,Vũng Tàu,,,10.370996,107.05975,"Phường 5, Vũng Tàu",,,,VND,,,Xem Phòng Trống,No,NORMAL
110911005,Haven Hut Hotel(Haven Hut Hotel),2,8.7,Rất Tốt,89,301,TP. Hồ Chí Minh,,,10.761936,106.693443,Gần Phạm Ngũ Lão | Ven sông Bạch Đằng,,,,VND,,,Xem Phòng Trống,No,NORMAL
92658829,Red Sun Airport Saigon Hotel(Red Sun Airport Saigon Hotel),3,7.5,,56,301,TP. Hồ Chí Minh,,,10.801344,106.662051,Gần Cảng hàng không Quốc tế Tân Sơn Nhất | Khu vực sân bay quốc tế Tân Sơn Nhất,,,,VND,,,Xem Phòng Trống,No,NORMAL
68088104,Khách sạn SK LEGEND(SK LEGEND HOTEL VUNG TAU),3,8.9,Rất Tốt,27,7529,Vũng Tàu,,,10.334173,107.089265,"Gần Tượng đài Chúa Kitô | Trung tâm Vũng Tàu, Vũng Tàu",,,,VND,,,Xem Phòng Trống,No,NORMAL
131560832,California Saigon Hotel(California Saigon Hotel),2,,,,301,TP. Hồ Chí Minh,,,10.862033,106.60311,Gần Trung Tâm Triển Lãm Hội Nghị Quốc Tế Sky Expo Việt Nam,,,,VND,,,Xem Phòng Trống,No,NORMAL
115253474,Zeus Living - Căn Hộ ấm cúng tại Villa An Phú(Zeus Living - Cozy apartment in Villa An Phu),2,8.2,Rất Tốt,2,301,TP. Hồ Chí Minh,,,10.798399,106.741735,Gần Ga Tàu Điện Ngầm An Phú | An Phú,,,,VND,,,Xem Phòng Trống,No,NORMAL
109944527,Pin Nguyen Cu Trinh(Pin Nguyen Cu Trinh),3,9.0,Tuyệt Vời,,301,TP. Hồ Chí Minh,,,10.763596,106.688563,Gần Phạm Ngũ Lão,,,,VND,,,Xem Phòng Trống,No,NORMAL
14085851,Khách sạn Solex(SoLex Hotel),3,8.6,Rất Tốt,140,301,TP. Hồ Chí Minh,,,10.801047,106.642483,Gần Cảng hàng không Quốc tế Tân Sơn Nhất,,,,VND,,,Xem Phòng Trống,No,NORMAL
993245,Khách Sạn Aluna Bến Thành(Aluna Ben Thanh Hotel),3,8.0,Rất Tốt,483,301,TP. Hồ Chí Minh,,,10.771842,106.696537,Gần Phạm Ngũ Lão | Khu chợ Bến Thành,,,,VND,,,Xem Phòng Trống,No,NORMAL
127934041,Khách sạn Saigon Garden (SECC Phú Mỹ Hưng)(Saigon Garden Hotel (SECC Phu My Hung)),3,8.9,Rất Tốt,163,301,TP. Hồ Chí Minh,,,10.732833,106.709829,Gần Trung tâm Hội chợ và Triển lãm Sài Gòn | Phú Mỹ Hưng,,,,VND,,,Xem Phòng Trống,No,NORMAL
116850238,M Village Living Kỳ Đồng(M Village Living Ky Dong),3,9.0,Tuyệt Vời,130,301,TP. Hồ Chí Minh,,,10.78272,106.68131,Gần Ga Sài Gòn,,,,VND,,,Xem Phòng Trống,No,NORMAL
132684800,Landmark 81 & Vinhomes Luxury Apartment(Landmark 81 & Vinhomes Luxury Apartment),3,10.0,Nổi Bật,29,301,TP. Hồ Chí Minh,,,10.795093,106.722091,Gần Landmark 81 Sky View Observatory | Công viên Vinhome Central Park,,,,VND,,,Xem Phòng Trống,No,NORMAL
131765967,Beautiful Hotel Bui vien(Beautiful Hotel Bui vien),2,9.1,Tuyệt Vời,6,301,TP. Hồ Chí Minh,,,10.767977,106.694131,Gần Phạm Ngũ Lão | Khu Phạm Ngũ Lão,,,,VND,,,Xem Phòng Trống,No,NORMAL
97208627,M Village Living Dien Bien Phu (The Tropic)(M Village Living Dien Bien Phu (The Tropic)),3,9.2,Tuyệt Vời,27,301,TP. Hồ Chí Minh,,,10.79944,106.70711,Gần Landmark 81 Sky View Observatory | Hàng Xanh,,,,VND,,,Xem Phòng Trống,No,NORMAL
113588455,RichLane Residences(RichLane Residences),5,9.1,Tuyệt Vời,237,301,TP. Hồ Chí Minh,,,10.73028,106.70455,Gần Trung tâm Hội chợ và Triển lãm Sài Gòn | Phú Mỹ Hưng,,,,VND,,,Xem Phòng Trống,No,NORMAL
1171819,Khách sạn Liberty Central Saigon Citypoint(Liberty Central Saigon Citypoint),4,9.1,Tuyệt Vời,292,301,TP. Hồ Chí Minh,,,10.774742,106.700748,Gần Phố Nhật Sài Gòn | Trung tâm Thành phố Hồ Chí Minh,,,,VND,,,Xem Phòng Trống,No,NORMAL
29708252,"Vinpearl Landmark 81, Autograph Collection(Vinpearl Landmark 81, Autograph Collection)",5,9.4,Đáng Kinh Ngạc,621,301,TP. Hồ Chí Minh,,,10.795225,106.721888,Gần Landmark 81 Sky View Observatory | Công viên Vinhome Central Park,,,,VND,,,Xem Phòng Trống,No,NORMAL
116890979,Phú Gia 113 Nguyễn Thị Thập(Phu Gia 113 Nguyen Thi Thap),2,7.3,,,301,TP. Hồ Chí Minh,,,10.737875,106.720998,Gần Trung tâm Hội chợ và Triển lãm Sài Gòn,,,,VND,,,Xem Phòng Trống,No,NORMAL
131300616,COMMON INN Thu Dau Mot(COMMON INN Thu Dau Mot),3,9.2,Tuyệt Vời,4,456628,Chánh Nghĩa,,,10.972092,106.666482,Chánh Nghĩa,,,,VND,,,Xem Phòng Trống,No,NORMAL
123006910,The Common Room Project(The Common Room Project),2,9.4,Đáng Kinh Ngạc,18,301,TP. Hồ Chí Minh,,,10.765809,106.690669,Gần Phạm Ngũ Lão | Khu Phạm Ngũ Lão,,,,VND,,,Xem Phòng Trống,No,NORMAL
714536,Khách sạn A&Em Bến Thành(A&Em Ben Thanh Hotel),4,8.2,Rất Tốt,180,301,TP. Hồ Chí Minh,,,10.773232,106.698484,Gần Phạm Ngũ Lão | Khu chợ Bến Thành,,,,VND,,,Xem Phòng Trống,No,NORMAL
9024220,Joi Home Beachfront(Joi Home Beachfront),3,8.0,Rất Tốt,18,7529,Vũng Tàu,,,10.339797,107.072528,"Gần Tượng đài Chúa Kitô | Trung tâm Vũng Tàu, Vũng Tàu",,,,VND,,,Xem Phòng Trống,No,NORMAL
2192598,Khách sạn Đức Minh Sài Gòn Airport(Duc Minh Saigon Airport Hotel),3,6.8,,24,301,TP. Hồ Chí Minh,,,10.795329,106.659558,Gần Cảng hàng không Quốc tế Tân Sơn Nhất,,,,VND,,,Xem Phòng Trống,No,NORMAL
125178754,TC Hotel Binh Duong New City(TC Hotel Binh Duong New City),4,9.1,Tuyệt Vời,399,459382,Phú Chánh,,,11.059975,106.684603,"Gần Hall A - TRUNG TÂM TRIỂN LÃM QUỐC TẾ WTC EXPO, Phú Chánh",,,,VND,,,Xem Phòng Trống,No,NORMAL
22136609,The Moon 1 Hotel(The Moon 1 Hotel),3,8.0,Rất Tốt,40,301,TP. Hồ Chí Minh,,,10.748355,106.614664,Gần AEON MALL Bình Tân,,,,VND,,,Xem Phòng Trống,No,NORMAL
22154290,Khách sạn NTA - Căn hộ dịch vụ(NTA Hotel - Serviced Apartments),4,8.7,Rất Tốt,111,301,TP. Hồ Chí Minh,,,10.78706,106.694396,Gần Phố Nhật Sài Gòn,,,,VND,,,Xem Phòng Trống,No,NORMAL
123331315,Landmark 81 & Vinhomes - Royal Apartment(Landmark 81 & Vinhomes - Royal Apartment),3,9.5,Đáng Kinh Ngạc,236,301,TP. Hồ Chí Minh,,,10.795112,106.722096,Gần Landmark 81 Sky View Observatory | Công viên Vinhome Central Park,,,,VND,,,Xem Phòng Trống,No,NORMAL
72244016,Premier Pearl Hotel Vũng Tàu(Premier Pearl Hotel Vung Tau),4,9.1,Tuyệt Vời,201,7529,Vũng Tàu,,,10.332236,107.088994,"Gần Tượng đài Chúa Kitô | Trung tâm Vũng Tàu, Vũng Tàu",,,,VND,,,Xem Phòng Trống,No,NORMAL
17324605,Khách sạn Fide(Fide Hotel),2,8.3,Rất Tốt,70,301,TP. Hồ Chí Minh,,,10.727465,106.705698,Gần Trung tâm Hội chợ và Triển lãm Sài Gòn | Phú Mỹ Hưng,,,,VND,,,Xem Phòng Trống,No,NORMAL
122360496,The Song Apartment 5 Star - Windy's Home(The Song Apartment 5 Star - Windy's Home),3,7.8,Tốt,79,7529,Vũng Tàu,,,10.350035,107.096042,"Gần Tượng đài Chúa Kitô | Trung tâm Vũng Tàu, Vũng Tàu",,,,VND,,,Xem Phòng Trống,No,NORMAL
119820361,Siris Niko Residence - Self Check In(Siris Niko Residence - Self Check In),2,6.7,,27,301,TP. Hồ Chí Minh,,,10.727476,106.705994,Gần Trung tâm Hội chợ và Triển lãm Sài Gòn | Phú Mỹ Hưng,,,,VND,,,Xem Phòng Trống,No,NORMAL
92040445,M Village Living Nam Ky Khoi Nghia(M Village Living Nam Ky Khoi Nghia),3,8.5,Rất Tốt,27,301,TP. Hồ Chí Minh,,,10.783485,106.691573,Gần Phố Nhật Sài Gòn,,,,VND,,,Xem Phòng Trống,No,NORMAL
2507659,The Reverie Saigon(The Reverie Saigon),5,9.3,Tuyệt Vời,387,301,TP. Hồ Chí Minh,,,10.77374,106.704549,Gần Phố Nhật Sài Gòn | Khu Nguyễn Huệ,,,,VND,,,Xem Phòng Trống,No,NORMAL
56743714,Khách sạn Khang Điền(Khang Dien Hotel),2,8.6,Rất Tốt,2,459382,Phú Chánh,,,11.072238,106.683022,"Gần Hall A - TRUNG TÂM TRIỂN LÃM QUỐC TẾ WTC EXPO, Phú Chánh",,,,VND,,,Xem Phòng Trống,No,NORMAL
1437525,Liberty Central Saigon Riverside(Liberty Central Saigon Riverside Hotel),4,8.9,Rất Tốt,356,301,TP. Hồ Chí Minh,,,10.774102,106.706214,Gần Phố Nhật Sài Gòn | Khu Nguyễn Huệ,,,,VND,,,Xem Phòng Trống,No,NORMAL
123899442,Landmark Plus By Somi Luxstay(Landmark Plus By Somi Luxstay),4,9.0,Tuyệt Vời,1,301,TP. Hồ Chí Minh,,,10.795524,106.719203,Gần Landmark 81 Sky View Observatory | Công viên Vinhome Central Park,,,,VND,,,Xem Phòng Trống,No,NORMAL
993064,Khách sạn Equatorial(Equatorial Ho Chi Minh City),5,8.6,Rất Tốt,388,301,TP. Hồ Chí Minh,,,10.763335,106.679058,Gần Phạm Ngũ Lão,,,,VND,,,Xem Phòng Trống,No,NORMAL
132319425,Vinhomes Central Park - KGroup Căn hộ Cao cấp(Vinhomes Central Park - KGroup Prime Apartment),3,9.8,Nổi Bật,3,301,TP. Hồ Chí Minh,,,10.794813,106.719938,Gần Landmark 81 Sky View Observatory | Công viên Vinhome Central Park,,,,VND,,,Xem Phòng Trống,No,NORMAL
125308183,The Sóng Apartment Vũng Tàu - RUBY HOUSE(The Song Apartment Vung Tau - RUBY HOUSE),3,9.5,Đáng Kinh Ngạc,45,7529,Vũng Tàu,,,10.350025,107.095862,"Gần Tượng đài Chúa Kitô | Trung tâm Vũng Tàu, Vũng Tàu",,,,VND,,,Xem Phòng Trống,No,NORMAL
110055171,Pearl Central Hotel(Pearl Central Hotel- Near Nguyen Hue Street),3,8.1,Rất Tốt,72,301,TP. Hồ Chí Minh,,,10.77567,106.70484,Gần Phố Nhật Sài Gòn | Khu Nguyễn Huệ,,,,VND,,,Xem Phòng Trống,No,NORMAL
111586313,Novotel Living Saigon South(Novotel Living Saigon South),4,8.5,Rất Tốt,296,301,TP. Hồ Chí Minh,,,10.73049,106.72361,Gần Trung tâm Hội chợ và Triển lãm Sài Gòn | Phú Mỹ Hưng,,,,VND,,,Xem Phòng Trống,No,NORMAL
101239477,Simmi 4 Hotel & Apartment Near SECC(Simmi 4 Hotel & Apartment Near SECC),3,9.8,Nổi Bật,2,301,TP. Hồ Chí Minh,,,10.731838,106.707144,Gần Trung tâm Hội chợ và Triển lãm Sài Gòn | Phú Mỹ Hưng,,,,VND,,,Xem Phòng Trống,No,NORMAL
126451751,KATOYA SUITES SAIGON HONKAN 加藤部屋西貢本館(每房皆有日式石造湯池)(KATOYA SUITES SAIGON HONKAN),3,8.5,Rất Tốt,6,301,TP. Hồ Chí Minh,,,10.771324,106.691944,Gần Phạm Ngũ Lão | Trung tâm Thành phố Hồ Chí Minh,,,,VND,,,Xem Phòng Trống,No,NORMAL
2195311,Khách sạn Âu Lạc Charner(Au Lac Charner Hotel),4,8.8,Rất Tốt,264,301,TP. Hồ Chí Minh,,,10.772125,106.703525,Gần Phố Nhật Sài Gòn | Khu Nguyễn Huệ,,,,VND,,,Xem Phòng Trống,No,NORMAL
21889918,The Mira Boutique Hotel(The Mira Boutique Hotel),3,8.8,Rất Tốt,249,77127,Thủ Dầu Một,,,10.98113,106.66711,"Gần Tp. Thủ Dầu Một, Thủ Dầu Một",,,,VND,,,Xem Phòng Trống,No,NORMAL
3386156,Hotel L'Odeon Phu My Hung(Hotel l'Odeon Ho Chi Minh City),3,8.9,Rất Tốt,155,301,TP. Hồ Chí Minh,,,10.730948,106.707791,Gần Trung tâm Hội chợ và Triển lãm Sài Gòn | Phú Mỹ Hưng,,,,VND,,,Xem Phòng Trống,No,NORMAL
128653101,HUNG THANH AIRPORT HOTEL – Gần Siêu Thị Vincom Cộng Hoà(Hung Thanh Airport Hotel),3,5.3,,2,301,TP. Hồ Chí Minh,,,10.798957,106.657707,Gần Cảng hàng không Quốc tế Tân Sơn Nhất,,,,VND,,,Xem Phòng Trống,No,NORMAL
758747,Khách sạn Oscar Sài Gòn(Oscar Saigon Hotel),4,8.5,Rất Tốt,240,301,TP. Hồ Chí Minh,,,10.774762,106.703292,Gần Phố Nhật Sài Gòn | Khu Nguyễn Huệ,,,,VND,,,Xem Phòng Trống,No,NORMAL
92040474,THANH TAI HOTEL 2(THANH TAI HOTEL 2),2,8.7,Rất Tốt,88,301,TP. Hồ Chí Minh,,,10.82724,106.6243,"Gần Cc Thái An, Nguyễn Văn Quá, Phường Đông Hưng Thuận, Quận 12, TP Ho Chi Minh",,,,VND,,,Xem Phòng Trống,No,NORMAL
8991258,Khách sạn New Space gần sân bay(New Space SaiGon Hotel Airport),3,7.9,Tốt,100,301,TP. Hồ Chí Minh,,,10.811505,106.666893,Khu vực sân bay quốc tế Tân Sơn Nhất,,,,VND,,,Xem Phòng Trống,No,NORMAL
107772232,Ngọ house(Ngo house),2,7.9,Tốt,2,301,TP. Hồ Chí Minh,,,10.798056,106.662333,Gần Cảng hàng không Quốc tế Tân Sơn Nhất,,,,VND,,,Xem Phòng Trống,No,NORMAL
713791,Khách sạn Boutique Garden(Boutique Garden Hotel),3,8.6,Rất Tốt,82,301,TP. Hồ Chí Minh,,,10.730463,106.707699,Gần Trung tâm Hội chợ và Triển lãm Sài Gòn | Phú Mỹ Hưng,,,,VND,,,Xem Phòng Trống,No,NORMAL
91713675,Khách sạn căn hộ TDMAISON(Tdmaison),4,9.3,Tuyệt Vời,31,7529,Vũng Tàu,,,10.354856,107.092229,"Trung tâm Vũng Tàu, Vũng Tàu",,,,VND,,,Xem Phòng Trống,No,NORMAL
131833882,Imperial Condotel Metropole Luxury Apartment(Imperial Condotel Metropole Luxury Apartment),3,8.9,Rất Tốt,139,301,TP. Hồ Chí Minh,,,10.778999,106.713299,Gần Phố Nhật Sài Gòn,,,,VND,,,Xem Phòng Trống,No,NORMAL
839839,Caravelle Saigon(Caravelle Saigon),5,9.2,Tuyệt Vời,759,301,TP. Hồ Chí Minh,,,10.776262,106.703613,Gần Phố Nhật Sài Gòn | Khu Nguyễn Huệ,,,,VND,,,Xem Phòng Trống,No,NORMAL
6634248,The Myst Đồng Khởi(The Myst Dong Khoi),5,9.2,Tuyệt Vời,198,301,TP. Hồ Chí Minh,,,10.7745,106.705597,Gần Phố Nhật Sài Gòn | Khu Nguyễn Huệ,,,,VND,,,Xem Phòng Trống,No,NORMAL
76423249,Fairfield by Marriott South Binh Duong(Fairfield by Marriott South Binh Duong),4,9.2,Tuyệt Vời,531,77118,Thị xã Thuận An,,,10.924023,106.718104,Thị xã Thuận An,,,,VND,,,Xem Phòng Trống,No,NORMAL
993115,Khách sạn New World Saigon(New World Saigon Hotel),5,9.2,Tuyệt Vời,655,301,TP. Hồ Chí Minh,,,10.77065,106.694955,Gần Phạm Ngũ Lão | Trung tâm Thành phố Hồ Chí Minh,,,,VND,,,Xem Phòng Trống,No,NORMAL
123264350,JW Marriott Hotel & Suites Saigon(JW Marriott Hotel & Suites Saigon),5,9.3,Tuyệt Vời,224,301,TP. Hồ Chí Minh,,,10.780941,106.700568,Gần Phố Nhật Sài Gòn,,,,VND,,,Xem Phòng Trống,No,NORMAL
132306308,Cashew Inn(Cashew Inn),3,9.8,Nổi Bật,7,301,TP. Hồ Chí Minh,,,10.766203,106.690098,Gần Phạm Ngũ Lão | Khu Phạm Ngũ Lão,,,,VND,,,Xem Phòng Trống,No,NORMAL
123327380,Luxury Riverside Apartment Landmark 81 & Vinhomes(Luxury Riverside Apartment Landmark 81 & Vinhomes),3,9.1,Tuyệt Vời,288,301,TP. Hồ Chí Minh,,,10.795112,106.722096,Gần Landmark 81 Sky View Observatory | Công viên Vinhome Central Park,,,,VND,,,Xem Phòng Trống,No,NORMAL
124584529,Khách Sạn ELLMAN(ELLMAN Boutique Hotel),2,8.6,Rất Tốt,16,77118,Thị xã Thuận An,,,10.943488,106.722203,Thị xã Thuận An,,,,VND,,,Xem Phòng Trống,No,NORMAL
128652098,Condotel Imperial Landmark 81(Condotel Imperial Landmark 81),4,9.0,Tuyệt Vời,710,301,TP. Hồ Chí Minh,,,10.795112,106.722096,Gần Landmark 81 Sky View Observatory | Công viên Vinhome Central Park,,,,VND,,,Xem Phòng Trống,No,NORMAL
15049836,Oakwood Residence Saigon(Oakwood Residence Saigon),5,9.2,Tuyệt Vời,733,301,TP. Hồ Chí Minh,,,10.730204,106.70472,Gần Trung tâm Hội chợ và Triển lãm Sài Gòn | Phú Mỹ Hưng,,,,VND,,,Xem Phòng Trống,No,NORMAL
69313990,Khách sạn Northern Charm(Northern Charm Hotel),4,8.1,Rất Tốt,205,301,TP. Hồ Chí Minh,,,10.78207,106.70458,Gần Phố Nhật Sài Gòn | Japanese  Area,,,,VND,,,Xem Phòng Trống,No,NORMAL
121804219,Your Homes Sunrise City Premium(Your Homes Sunrise City Premium),3,8.0,Rất Tốt,15,301,TP. Hồ Chí Minh,,,10.746005,106.701503,Gần Phạm Ngũ Lão,,,,VND,,,Xem Phòng Trống,No,NORMAL
113053819,Khách sạn Silverland Bến Thành(Silverland Ben Thanh Hotel),4,9.3,Tuyệt Vời,326,301,TP. Hồ Chí Minh,,,10.771802,106.697274,Gần Phạm Ngũ Lão | Trung tâm Thành phố Hồ Chí Minh,,,,VND,,,Xem Phòng Trống,No,NORMAL
7215807,Saigon by Night Luxury Hotel(Saigon by Night Luxury Hotel),3,7.2,,102,301,TP. Hồ Chí Minh,,,10.732435,106.709874,Gần Trung tâm Hội chợ và Triển lãm Sài Gòn | Phú Mỹ Hưng,,,,VND,,,Xem Phòng Trống,No,NORMAL
104590608,HIIVE by fusion Binh Duong - VSIP 1(HIIVE by fusion Binh Duong - VSIP 1),4,8.8,Rất Tốt,465,77118,Thị xã Thuận An,,,10.924619,106.715834,Thị xã Thuận An,,,,VND,,,Xem Phòng Trống,No,NORMAL
128412247,KHÁCH SẠN HALO BOUTIQUE BẾN THÀNH(HALO BOUTIQUE BEN THANH HOTEL),3,8.1,Rất Tốt,20,301,TP. Hồ Chí Minh,,,10.773572,106.697243,Gần Chợ Bến Thành | Khu chợ Bến Thành,,,,VND,,,Xem Phòng Trống,No,NORMAL
846566,Khách Sạn Thiên Hồng(Thien Hong - Arc En Ciel Hotel),3,7.6,Tốt,22,301,TP. Hồ Chí Minh,,,10.752152,106.664536,Gần Chợ Lớn,,,,VND,,,Xem Phòng Trống,No,NORMAL
124429396,Luxury Radisson Landmark 81 & Vinhomes(Luxury Radisson Landmark 81 & Vinhomes),3,9.7,Đáng Kinh Ngạc,228,301,TP. Hồ Chí Minh,,,10.795112,106.722096,Gần Landmark 81 Sky View Observatory | Công viên Vinhome Central Park,,,,VND,,,Xem Phòng Trống,No,NORMAL
100917567,Lila Hotel & Apartment(LILA Hotel & Apartments),3,9.1,Tuyệt Vời,55,301,TP. Hồ Chí Minh,,,10.732018,106.706906,Gần Trung tâm Hội chợ và Triển lãm Sài Gòn | Phú Mỹ Hưng,,,,VND,,,Xem Phòng Trống,No,NORMAL
104409936,The Moon 3 Hotel(The Moon 3 Hotel),3,9.1,Tuyệt Vời,12,301,TP. Hồ Chí Minh,,,10.744779,106.615431,Gần AEON MALL Bình Tân,,,,VND,,,Xem Phòng Trống,No,NORMAL
107151941,EMERALD APARTMENT(EMERALD APARTMENT),3,8.5,Rất Tốt,10,301,TP. Hồ Chí Minh,,,10.778183,106.688747,Gần Phạm Ngũ Lão,,,,VND,,,Xem Phòng Trống,No,NORMAL
112100677,The Moon 2 Hotel(The Moon 2 Hotel),3,8.8,Rất Tốt,27,301,TP. Hồ Chí Minh,,,10.748331,106.61401,Gần AEON MALL Bình Tân,,,,VND,,,Xem Phòng Trống,No,NORMAL
2073112,Park Hyatt Saigon(Park Hyatt Saigon),5,8.9,Rất Tốt,204,301,TP. Hồ Chí Minh,,,10.777482,106.703455,Gần Phố Nhật Sài Gòn | Khu Nguyễn Huệ,,,,VND,,,Xem Phòng Trống,No,NORMAL
7359980,Becamex Hotel New City(Becamex Hotel New City),4,9.1,Tuyệt Vời,907,77127,Thủ Dầu Một,,,11.056463,106.684179,"Gần SORA gardens II, Thủ Dầu Một",,,,VND,,,Xem Phòng Trống,No,NORMAL
713627,Khách sạn Royal Sài Gòn(Royal Hotel Saigon),4,8.7,Rất Tốt,362,301,TP. Hồ Chí Minh,,,10.774644,106.702543,Gần Phố Nhật Sài Gòn | Khu Nguyễn Huệ,,,,VND,,,Xem Phòng Trống,No,NORMAL
118856072,M Village Hotel Nguyễn Kiệm(M Village Hotel Nguyen Kiem),3,8.2,Rất Tốt,46,301,TP. Hồ Chí Minh,,,10.808054,106.678387,Gần Cảng hàng không Quốc tế Tân Sơn Nhất,,,,VND,,,Xem Phòng Trống,No,NORMAL
70778764,Le Palmier Hồ Tràm Resort(Le Palmier Ho Tram Resort),4,9.3,Tuyệt Vời,60,681904,Phước Thuận,,,10.471194,107.425377,"Gần Hồ Tràm, Phước Thuận",,,,VND,,,Xem Phòng Trống,No,NORMAL
131826879,Luxury Landmark 81 & Vinhomes Central Park - Vacation Apartment(Luxury Landmark 81 & Vinhomes Central Park - Vacation Apartment),3,9.5,Đáng Kinh Ngạc,73,301,TP. Hồ Chí Minh,,,10.795248,106.722097,Gần Landmark 81 Sky View Observatory | Công viên Vinhome Central Park,,,,VND,,,Xem Phòng Trống,No,NORMAL
124429399,Luxury Royal Landmark 81 & Vinhomes(Luxury Royal Landmark 81 & Vinhomes),4,9.2,Tuyệt Vời,194,301,TP. Hồ Chí Minh,,,10.795112,106.722096,Gần Landmark 81 Sky View Observatory | Công viên Vinhome Central Park,,,,VND,,,Xem Phòng Trống,No,NORMAL
124315877,The Royal Sky - Phu My Hung(The Royal Sky - Phu My Hung),2,8.2,Rất Tốt,17,301,TP. Hồ Chí Minh,,,10.733633,106.70746,Gần Trung tâm Hội chợ và Triển lãm Sài Gòn | Phú Mỹ Hưng,,,,VND,,,Xem Phòng Trống,No,NORMAL
100334307,M Village Living Lý Chính Thắng(M Village Living Ly Chinh Thang),3,9.3,Tuyệt Vời,29,301,TP. Hồ Chí Minh,,,10.786571,106.685325,Gần SAIGON POKER ROOM,,,,VND,,,Xem Phòng Trống,No,NORMAL
993099,Sheraton Saigon Grand Opera Hotel(Sheraton Saigon Grand Opera Hotel),5,9.3,Tuyệt Vời,550,301,TP. Hồ Chí Minh,,,10.775446,106.703878,Gần Phố Nhật Sài Gòn | Khu Nguyễn Huệ,,,,VND,,,Xem Phòng Trống,No,NORMAL
2511229,Le Meridien Saigon(Le Meridien Saigon),5,8.9,Rất Tốt,235,301,TP. Hồ Chí Minh,,,10.779791,106.707528,Gần Phố Nhật Sài Gòn | Lê Thánh Tôn,,,,VND,,,Xem Phòng Trống,No,NORMAL
98974521,Sotetsu Grand Fresa Saigon(Sotetsu Grand Fresa Saigon),4,9.4,Đáng Kinh Ngạc,538,301,TP. Hồ Chí Minh,,,10.782287,106.704735,Gần Phố Nhật Sài Gòn | Japanese  Area,,,,VND,,,Xem Phòng Trống,No,NORMAL
1696466,ibis Saigon South(Ibis Saigon South),3,8.6,Rất Tốt,324,301,TP. Hồ Chí Minh,,,10.730496,106.723437,Gần Trung tâm Hội chợ và Triển lãm Sài Gòn | Phú Mỹ Hưng,,,,VND,,,Xem Phòng Trống,No,NORMAL
2606386,Adora Mira Hotel (formerly Ramada Encore By Wyndham Saigon D1)(Adora Mira Hotel (formerly Ramada Encore By Wyndham Saigon D1)),4,8.8,Rất Tốt,179,301,TP. Hồ Chí Minh,,,10.77812,106.705775,Gần Phố Nhật Sài Gòn | Lê Thánh Tôn,,,,VND,,,Xem Phòng Trống,No,NORMAL
6647404,Khách sạn Atana sân bay(Atana Hotel),2,6.5,,4,301,TP. Hồ Chí Minh,,,10.832938,106.608938,"Gần Cc Thái An, Nguyễn Văn Quá, Phường Đông Hưng Thuận, Quận 12, TP Ho Chi Minh",,,,VND,,,Xem Phòng Trống,No,NORMAL
707230,Khách Sạn Adora(Adora Hotel),4,8.5,Rất Tốt,403,301,TP. Hồ Chí Minh,,,10.774433,106.696839,Gần Phạm Ngũ Lão | Trung tâm Thành phố Hồ Chí Minh,,,,VND,,,Xem Phòng Trống,No,NORMAL
993125,Liberty Central Saigon Centre(Liberty Central Saigon Centre Hotel),4,9.0,Tuyệt Vời,249,301,TP. Hồ Chí Minh,,,10.773683,106.698649,Gần Chợ Bến Thành | Khu chợ Bến Thành,,,,VND,,,Xem Phòng Trống,No,NORMAL
132692841,VAH Villa 9 Bedrooms(VAH Villa 9 Bedrooms),3,10.0,Nổi Bật,,301,TP. Hồ Chí Minh,,,10.797164,106.72941,Gần Ga Tàu Điện Ngầm Thảo Điền,,,,VND,,,Xem Phòng Trống,No,NORMAL
993088,Saigon Prince Hotel(Saigon Prince Hotel),4,8.7,Rất Tốt,224,301,TP. Hồ Chí Minh,,,10.77281,106.704069,Gần Phố Nhật Sài Gòn | Khu Nguyễn Huệ,,,,VND,,,Xem Phòng Trống,No,NORMAL
124429385,Luxury Tropical Landmark 81 & Vinhomes(Luxury Tropical Landmark 81 & Vinhomes),4,9.3,Tuyệt Vời,45,301,TP. Hồ Chí Minh,,,10.795112,106.722096,Gần Landmark 81 Sky View Observatory | Công viên Vinhome Central Park,,,,VND,,,Xem Phòng Trống,No,NORMAL
118274760,HIIVE by fusion Binh Duong New City - VSIP 2(HIIVE by fusion Binh Duong New City - VSIP 2),4,9.0,Tuyệt Vời,453,459382,Phú Chánh,,,11.072301,106.678569,"Gần Hall A - TRUNG TÂM TRIỂN LÃM QUỐC TẾ WTC EXPO, Phú Chánh",,,,VND,,,Xem Phòng Trống,No,NORMAL
50281210,ibis Styles Vung Tau(Ibis Styles Vung Tau),4,9.0,Tuyệt Vời,101,7529,Vũng Tàu,,,10.336226,107.090387,"Gần Tượng đài Chúa Kitô | Trung tâm Vũng Tàu, Vũng Tàu",,,,VND,,,Xem Phòng Trống,No,NORMAL
102316758,La Siesta Premium Saigon(La Siesta Premium Saigon),5,9.3,Tuyệt Vời,173,301,TP. Hồ Chí Minh,,,10.773199,106.695678,Gần Phạm Ngũ Lão | Trung tâm Thành phố Hồ Chí Minh,,,,VND,,,Xem Phòng Trống,No,NORMAL
128229520,Homezie Sai gon(Homezie Saigon),3,10.0,Nổi Bật,,301,TP. Hồ Chí Minh,,,10.790536,106.685326,Gần Nhà Thờ Giáo Xứ Tân Định,,,,VND,,,Xem Phòng Trống,No,NORMAL
129335647,Oasky Vung Tau Apartment - D'Homes economy(Oasky Vung Tau Apartment - D'Homes economy),3,9.5,Đáng Kinh Ngạc,2,7529,Vũng Tàu,,,10.346129,107.095402,"Gần Tượng đài Chúa Kitô | Trung tâm Vũng Tàu, Vũng Tàu",,,,VND,,,Xem Phòng Trống,No,NORMAL
130207404,Sunflower Apartment - Luxury Suite by THC  Group(Sunflower Apartment - Luxury Suite by THC  Group),5,10.0,Nổi Bật,3,301,TP. Hồ Chí Minh,,,10.77279,106.688303,Gần Phạm Ngũ Lão,,,,VND,,,Xem Phòng Trống,No,NORMAL
112384668,VINHOMES PREMIUM RESIDENCE(VINHOMES PREMIUM RESIDENCE),4,8.7,Rất Tốt,225,301,TP. Hồ Chí Minh,,,10.79372,106.721316,Gần Landmark 81 Sky View Observatory | Công viên Vinhome Central Park,,,,VND,,,Xem Phòng Trống,No,NORMAL
117395681,M Village Hotel Lý Tự Trọng(M Village Hotel Ly Tu Trong),4,8.4,Rất Tốt,47,301,TP. Hồ Chí Minh,,,10.772754,106.695151,Gần Phạm Ngũ Lão | Trung tâm Thành phố Hồ Chí Minh,,,,VND,,,Xem Phòng Trống,No,NORMAL
5468188,Collection O VyVy Airport Hotel(Collection O VyVy Airport Hotel),3,7.6,Tốt,96,301,TP. Hồ Chí Minh,,,10.800462,106.662511,Gần Cảng hàng không Quốc tế Tân Sơn Nhất,,,,VND,,,Xem Phòng Trống,No,NORMAL
7654794,A25 Hote -  180 Nguyễn Trãi(A25 Hotel - 180 Nguyen Trai),3,8.5,Rất Tốt,21,301,TP. Hồ Chí Minh,,,10.769112,106.689981,Gần Phạm Ngũ Lão | Trung tâm Thành phố Hồ Chí Minh,,,,VND,,,Xem Phòng Trống,No,NORMAL
4056005,Khách sạn Phú Mỹ Harbour(Phu MY Harbour Hotel - Old Golf Phu My Hotel),4,8.8,Rất Tốt,45,77133,Tân Thành,,,10.599952,107.054398,Tân Thành,,,,VND,,,Xem Phòng Trống,No,NORMAL
714556,Khách sạn Cap Town(Cap Town Hotel),3,8.6,Rất Tốt,83,301,TP. Hồ Chí Minh,,,10.772054,106.695208,Gần Phạm Ngũ Lão | Trung tâm Thành phố Hồ Chí Minh,,,,VND,,,Xem Phòng Trống,No,NORMAL
123575114,Express by M Village Võ Văn Kiệt(Express by M Village Vo Van Kiet),3,8.5,Rất Tốt,118,301,TP. Hồ Chí Minh,,,10.759142,106.692613,Gần Phạm Ngũ Lão,,,,VND,,,Xem Phòng Trống,No,NORMAL
65184389,Khách sạn The Cap(The Cap Hotel and Apartment),4,8.4,Rất Tốt,72,7529,Vũng Tàu,,,10.35076,107.09871,"Gần Tượng đài Chúa Kitô | Trung tâm Vũng Tàu, Vũng Tàu",,,,VND,,,Xem Phòng Trống,No,NORMAL
44407446,Elizabeth Hotel(Elizabeth Hotel),4,9.0,Tuyệt Vời,196,77127,Thủ Dầu Một,,,10.9723,106.675,Thủ Dầu Một,,,,VND,,,Xem Phòng Trống,No,NORMAL
128986465,Lani Living - Residence & Hotel in District 1(Lani Living - Residence & Hotel in District 1),4,8.1,Rất Tốt,56,301,TP. Hồ Chí Minh,,,10.763126,106.694768,Gần Phạm Ngũ Lão | Ven sông Bạch Đằng,,,,VND,,,Xem Phòng Trống,No,NORMAL
99008731,Oakwood Hotel & Apartments Saigon(Oakwood Hotel & Apartments Saigon),4,8.8,Rất Tốt,438,301,TP. Hồ Chí Minh,,,10.80144,106.722879,Gần Landmark 81 Sky View Observatory | Hàng Xanh,,,,VND,,,Xem Phòng Trống,No,NORMAL
123821119,Saigon Royal and Tresor apartments(Saigon Royal and Tresor apartments),3,8.7,Rất Tốt,2,301,TP. Hồ Chí Minh,,,10.767153,106.704085,Gần Phố Nhật Sài Gòn | Ven sông Bạch Đằng,,,,VND,,,Xem Phòng Trống,No,NORMAL
127902172,Blue Sea Luxury Hotel & Apartment Vũng Tàu(Blue Sea Luxury Hotel & Apartment Vung Tau),3,9.2,Tuyệt Vời,9,7529,Vũng Tàu,,,10.340316,107.077968,"Gần Tượng đài Chúa Kitô | Trung tâm Vũng Tàu, Vũng Tàu",,,,VND,,,Xem Phòng Trống,No,NORMAL
993030,Khách sạn Empress Thành phố Hồ Chí Minh(Empress Hotel Ho Chi Minh City),3,7.3,,21,301,TP. Hồ Chí Minh,,,10.769479,106.687837,Gần Phạm Ngũ Lão | Trung tâm Thành phố Hồ Chí Minh,,,,VND,,,Xem Phòng Trống,No,NORMAL
130887249,Serenity Center Saigon(Serenity Center Saigon),3,8.8,Rất Tốt,8,301,TP. Hồ Chí Minh,,,10.777957,106.691728,Gần Phạm Ngũ Lão,,,,VND,,,Xem Phòng Trống,No,NORMAL
110935638,Express by M Village Nguyễn Văn Thủ(Express by M Village Nguyen Van Thu),3,8.9,Rất Tốt,54,301,TP. Hồ Chí Minh,,,10.786125,106.695593,Gần Phố Nhật Sài Gòn,,,,VND,,,Xem Phòng Trống,No,NORMAL
117957257,SpringHill Apartment - The High Class(SpringHill Apartment - The High Class),3,7.9,Tốt,18,301,TP. Hồ Chí Minh,,,10.732358,106.709196,Gần Trung tâm Hội chợ và Triển lãm Sài Gòn | Phú Mỹ Hưng,,,,VND,,,Xem Phòng Trống,No,NORMAL
4062306,The Reverie Saigon Residential Suites(The Reverie Saigon Residential Suites),5,9.8,Nổi Bật,48,301,TP. Hồ Chí Minh,,,10.774076,106.704988,Gần Phố Nhật Sài Gòn | Khu Nguyễn Huệ,,,,VND,,,Xem Phòng Trống,No,NORMAL
35925813,Khách sạn Sabina 2(Sabina Hotel 2),3,8.7,Rất Tốt,61,301,TP. Hồ Chí Minh,,,10.730952,106.70808,Gần Trung tâm Hội chợ và Triển lãm Sài Gòn | Phú Mỹ Hưng,,,,VND,,,Xem Phòng Trống,No,NORMAL
68411375,Milan 1 Hotel(Milan 1 Hotel),2,5.7,,3,301,TP. Hồ Chí Minh,,,10.739122,106.690944,Gần Trường Đại học Sài Gòn,,,,VND,,,Xem Phòng Trống,No,NORMAL
23501694,Phương Thùy Hotel(Phuong Thuy Hotel),2,6.6,,17,301,TP. Hồ Chí Minh,,,10.860692,106.723602,Gần Công Viên Nhạc Nước Van Phuc City,,,,VND,,,Xem Phòng Trống,No,NORMAL
123351008,Diamond Island - Mekong Retreat Apartment(Diamond Island - Mekong Retreat Apartment),4,9.9,Nổi Bật,10,301,TP. Hồ Chí Minh,,,10.778821,106.746667,Gần Ga Tàu Điện Ngầm Thảo Điền,,,,VND,,,Xem Phòng Trống,No,NORMAL
114783687,"Kin Wander Tân Phong, The Moonage(Kin Wander Tan Phong, The Moonage)",3,8.9,Rất Tốt,8,301,TP. Hồ Chí Minh,,,10.737302,106.7049,Gần Trung tâm Hội chợ và Triển lãm Sài Gòn,,,,VND,,,Xem Phòng Trống,No,NORMAL
713651,Somerset Chancellor Court TP. Hồ Chí Minh(Somerset Chancellor Court),5,8.9,Rất Tốt,163,301,TP. Hồ Chí Minh,,,10.784143,106.699465,Gần Phố Nhật Sài Gòn,,,,VND,,,Xem Phòng Trống,No,NORMAL
993286,Khách sạn A&Em Art Hotel(A&EM Art Hotel),4,8.4,Rất Tốt,189,301,TP. Hồ Chí Minh,,,10.771757,106.695093,Gần Phạm Ngũ Lão | Trung tâm Thành phố Hồ Chí Minh,,,,VND,,,Xem Phòng Trống,No,NORMAL
121781241,THE STAR HOTEL 2(THE STAR HOTEL 2),3,8.3,Rất Tốt,2,301,TP. Hồ Chí Minh,,,10.731404,106.707906,Gần Trung tâm Hội chợ và Triển lãm Sài Gòn | Phú Mỹ Hưng,,,,VND,,,Xem Phòng Trống,No,NORMAL
98394107,SV Boutique Resort(SV Boutique Resort),4,8.7,Rất Tốt,39,7529,Vũng Tàu,,,10.330235,107.077382,"Gần Tượng đài Chúa Kitô | Trung tâm Vũng Tàu, Vũng Tàu",,,,VND,,,Xem Phòng Trống,No,NORMAL
2847096,Khách sạn & Căn hộ dịch vụ Cityview thành phố Hồ Chí Minh(Cityview Serviced Apartment & Hotel Ho Chi Minh City),3,9.4,Đáng Kinh Ngạc,42,301,TP. Hồ Chí Minh,,,10.78504,106.699432,Gần Phố Nhật Sài Gòn,,,,VND,,,Xem Phòng Trống,No,NORMAL
68074789,MEANDER Saigon(MEANDER Saigon),2,9.5,Đáng Kinh Ngạc,326,301,TP. Hồ Chí Minh,,,10.782483,106.705262,Gần Phố Nhật Sài Gòn | Lê Thánh Tôn,,,,VND,,,Xem Phòng Trống,No,NORMAL
713519,Khách sạn IMPERIAL Vũng Tàu(The IMPERIAL Vung Tau Hotel),5,8.6,Rất Tốt,212,7529,Vũng Tàu,,,10.343964,107.094963,"Gần Tượng đài Chúa Kitô | Trung tâm Vũng Tàu, Vũng Tàu",,,,VND,,,Xem Phòng Trống,No,NORMAL
10156017,Khách sạn Maison De Camille(Maison De Camille Boutique Hotel),4,8.6,Rất Tốt,105,301,TP. Hồ Chí Minh,,,10.797221,106.705415,Gần Phố Nhật Sài Gòn | Hàng Xanh,,,,VND,,,Xem Phòng Trống,No,NORMAL
23878247,Khách sạn Golda(Golda Hotel),3,7.1,,58,301,TP. Hồ Chí Minh,,,10.756487,106.658091,Gần Chợ Lớn,,,,VND,,,Xem Phòng Trống,No,NORMAL
1739956,Khách sạn Sofitel Saigon Plaza(Sofitel Saigon Plaza),5,9.0,Tuyệt Vời,135,301,TP. Hồ Chí Minh,,,10.784077,106.702569,Gần Phố Nhật Sài Gòn,,,,VND,,,Xem Phòng Trống,No,NORMAL
993297,Khách sạn Happy Life(Happy Life Hotel District 7 Gan Secc),3,7.5,,50,301,TP. Hồ Chí Minh,,,10.738098,106.730121,Gần Trung tâm Hội chợ và Triển lãm Sài Gòn,,,,VND,,,Xem Phòng Trống,No,NORMAL
124429386,Luxury Lake and River Landmark 81 & Vinhomes(Luxury Lake and River Landmark 81 & Vinhomes),4,9.4,Đáng Kinh Ngạc,182,301,TP. Hồ Chí Minh,,,10.795112,106.722096,Gần Landmark 81 Sky View Observatory | Công viên Vinhome Central Park,,,,VND,,,Xem Phòng Trống,No,NORMAL
119994904,City Garden Suites - Panorama Penthouse(City Garden Suites - Panorama Penthouse),3,9.5,Đáng Kinh Ngạc,1,301,TP. Hồ Chí Minh,,,10.794048,106.711654,Gần Phố Nhật Sài Gòn | Hàng Xanh,,,,VND,,,Xem Phòng Trống,No,NORMAL
22132733,Khách Sạn Tường Vi Corner(Tuong Vi Corner Hotel),3,8.4,Rất Tốt,20,301,TP. Hồ Chí Minh,,,10.772595,106.669963,Gần Trung Tâm Thương Mại Vạn Hạnh,,,,VND,,,Xem Phòng Trống,No,NORMAL
115478429,GOLDEN SUN 3 APARTMENTS(GOLDEN SUN 3 APARTMENTS),2,7.8,Tốt,24,301,TP. Hồ Chí Minh,,,10.732788,106.707881,Gần Trung tâm Hội chợ và Triển lãm Sài Gòn | Phú Mỹ Hưng,,,,VND,,,Xem Phòng Trống,No,NORMAL
1739584,Khách sạn EMM Saigon(EMM Hotel Saigon),3,9.3,Tuyệt Vời,104,301,TP. Hồ Chí Minh,,,10.784842,106.690687,Gần Phố Nhật Sài Gòn,,,,VND,,,Xem Phòng Trống,No,NORMAL
106192111,M Village Hotel Tôn Thất Đạm(M Village Hotel Ton That Dam),4,8.8,Rất Tốt,372,301,TP. Hồ Chí Minh,,,10.772435,106.702529,Gần Phố Nhật Sài Gòn | Khu Nguyễn Huệ,,,,VND,,,Xem Phòng Trống,No,NORMAL
132341546,Căn hộ The Sóng Vũng Tàu(The Song Condotel Vung Tau),4,9.3,Tuyệt Vời,5,7529,Vũng Tàu,,,10.35001,107.096172,"Gần Tượng đài Chúa Kitô | Trung tâm Vũng Tàu, Vũng Tàu",,,,VND,,,Xem Phòng Trống,No,NORMAL
122473380,Me Saigon Boutique Hotel(Me Saigon Boutique Hotel),4,8.7,Rất Tốt,66,301,TP. Hồ Chí Minh,,,10.771899,106.695361,Gần Phạm Ngũ Lão | Trung tâm Thành phố Hồ Chí Minh,,,,VND,,,Xem Phòng Trống,No,NORMAL
130334195,Bien Sao Hotel Duong Quang Ham(Bien Sao Hotel Duong Quang Ham),3,6.1,,2,301,TP. Hồ Chí Minh,,,10.83162,106.686902,Gần Cảng hàng không Quốc tế Tân Sơn Nhất,,,,VND,,,Xem Phòng Trống,No,NORMAL
128805475,M Village Hotel Nguyễn Du(M Village Hotel Nguyen Du),4,9.3,Tuyệt Vời,205,301,TP. Hồ Chí Minh,,,10.77243,106.69302,Gần Phạm Ngũ Lão | Trung tâm Thành phố Hồ Chí Minh,,,,VND,,,Xem Phòng Trống,No,NORMAL
22816804,Khách sạn Happy Life Grand & Sky Bar(Happy Life Grand Hotel & Sky Bar),4,8.4,Rất Tốt,169,301,TP. Hồ Chí Minh,,,10.769196,106.697646,Gần Chợ Bến Thành,,,,VND,,,Xem Phòng Trống,No,NORMAL
128723179,Golden Sun Hotel Apartments 5(Golden Sun Hotel Apartments 5),3,3.0,,3,301,TP. Hồ Chí Minh,,,10.772267,106.756841,"Cách trung tâm 6,6km",,,,VND,,,Xem Phòng Trống,No,NORMAL
108791668,Signature by M Village Hai Bà Trưng(Signature by M Village Hai Ba Trung),4,9.1,Tuyệt Vời,132,301,TP. Hồ Chí Minh,,,10.778079,106.703751,Gần Phố Nhật Sài Gòn | Lê Thánh Tôn,,,,VND,,,Xem Phòng Trống,No,NORMAL
130842636,Căn hộ The Sóng - ViVi Home(THE SÓNG APARTMENT - ViVi Home),3,9.6,Đáng Kinh Ngạc,16,7529,Vũng Tàu,,,10.350025,107.095862,"Gần Tượng đài Chúa Kitô | Trung tâm Vũng Tàu, Vũng Tàu",,,,VND,,,Xem Phòng Trống,No,NORMAL
713755,Kin Hotel Ly Tu Trong(Kin Hotel Ly Tu Trong),4,9.4,Đáng Kinh Ngạc,186,301,TP. Hồ Chí Minh,,,10.773577,106.696776,Gần Phạm Ngũ Lão | Trung tâm Thành phố Hồ Chí Minh,,,,VND,,,Xem Phòng Trống,No,NORMAL
124513823,StayX Condotel(StayX Condotel),4,9.2,Tuyệt Vời,17,301,TP. Hồ Chí Minh,,,10.725945,106.728845,Gần Trung tâm Hội chợ và Triển lãm Sài Gòn,,,,VND,,,Xem Phòng Trống,No,NORMAL
129462772,"JW Marriott Hotel & Suites Saigon, The Apartments(JW Marriott Hotel & Suites Saigon, The Apartments)",5,9.3,Tuyệt Vời,35,301,TP. Hồ Chí Minh,,,10.781473,106.70138,Gần Phố Nhật Sài Gòn,,,,VND,,,Xem Phòng Trống,No,NORMAL
5708393,SILA Urban Living(SILA Urban Living),4,8.5,Rất Tốt,123,301,TP. Hồ Chí Minh,,,10.781019,106.690461,Gần Phạm Ngũ Lão,,,,VND,,,Xem Phòng Trống,No,NORMAL
1314801,Villa Sông Saigon(Villa Song Saigon),4,8.9,Rất Tốt,44,301,TP. Hồ Chí Minh,,,10.815743,106.733912,Gần Ga Tàu Điện Ngầm An Phú | Thảo Điền,,,,VND,,,Xem Phòng Trống,No,NORMAL
758733,Khách sạn Bát Đạt(Bat Dat Hotel),3,7.9,Tốt,46,301,TP. Hồ Chí Minh,,,10.752413,106.665055,Gần Chợ Lớn,,,,VND,,,Xem Phòng Trống,No,NORMAL
128162322,Phú Gia Luxury(Phú Gia Luxury),2,7.8,Tốt,5,301,TP. Hồ Chí Minh,,,10.740435,106.710046,Gần Trung tâm Hội chợ và Triển lãm Sài Gòn,,,,VND,,,Xem Phòng Trống,No,NORMAL
117494859,M Village Hotel Hai Bà Trưng(M Village Hotel Hai Ba Trung),4,9.0,Tuyệt Vời,102,301,TP. Hồ Chí Minh,,,10.786458,106.694556,Gần Phố Nhật Sài Gòn,,,,VND,,,Xem Phòng Trống,No,NORMAL
123286431,THÀNH PHỐ MỚI HOTEL(XinChen Hotel),3,8.8,Rất Tốt,30,77127,Thủ Dầu Một,,,11.041388,106.689595,"Gần SORA gardens II, Thủ Dầu Một",,,,VND,,,Xem Phòng Trống,No,NORMAL
47508138,"Chung cư 150 m² 3 phòng ngủ, 3 phòng tắm riêng ở Thắng Tam(AnNam Home)",4,8.4,Rất Tốt,,7529,Vũng Tàu,,,10.35143,107.10133,"Trung tâm Vũng Tàu, Vũng Tàu",,,,VND,,,Xem Phòng Trống,No,NORMAL
115803943,Khu nghỉ dưỡng Emerald Hồ Tràm(Emerald Ho Tram Resort),4,8.6,Rất Tốt,45,681904,Phước Thuận,,,10.471146,107.39821,Phước Thuận,,,,VND,,,Xem Phòng Trống,No,NORMAL
129896627,Luxury Landmark 81 Urban Apartment(Luxury Landmark 81 Urban Apartment),3,9.3,Tuyệt Vời,230,301,TP. Hồ Chí Minh,,,10.79531,106.72202,Gần Landmark 81 Sky View Observatory | Công viên Vinhome Central Park,,,,VND,,,Xem Phòng Trống,No,NORMAL
43095941,SAZI AMILA Nguyen Hue Hotel - Free Banh Mi(SAZI AMILA Nguyen Hue Hotel - Free Banh Mi),2,7.8,Tốt,51,301,TP. Hồ Chí Minh,,,10.772308,106.702197,Gần Phố Nhật Sài Gòn | Khu Nguyễn Huệ,,,,VND,,,Xem Phòng Trống,No,NORMAL
115481673,Lumiere Riverside by Aura Luxury(Lumiere Riverside by Aura Luxury),5,9.3,Tuyệt Vời,11,301,TP. Hồ Chí Minh,,,10.804058,106.748293,Gần Ga Tàu Điện Ngầm An Phú | An Phú,,,,VND,,,Xem Phòng Trống,No,NORMAL
713845,Khách sạn Bon Ami (Khách sạn Thiên Xuân)(Bon Ami Hotel),3,8.1,Rất Tốt,124,301,TP. Hồ Chí Minh,,,10.77401,106.698627,Gần Phố Nhật Sài Gòn | Khu chợ Bến Thành,,,,VND,,,Xem Phòng Trống,No,NORMAL
10579465,The Manor 2 Luxury Apartment Free Roof Top Pool(The Manor 2 Luxury Apartment Free Roof Top Pool),4,8.7,Rất Tốt,1,301,TP. Hồ Chí Minh,,,10.793529,106.717544,Gần Landmark 81 Sky View Observatory | Hàng Xanh,,,,VND,,,Xem Phòng Trống,No,NORMAL
121743669,OLIU'S HOMESTAY - Căn hộ The Sóng Vũng Tàu(OLIU'S HOMESTAY - The Song Apartment Vung Tau with free pool),3,9.5,Đáng Kinh Ngạc,54,7529,Vũng Tàu,,,10.350043,107.095824,"Gần Tượng đài Chúa Kitô | Trung tâm Vũng Tàu, Vũng Tàu",,,,VND,,,Xem Phòng Trống,No,NORMAL
2564385,Căn hộ dịch vụ Lancaster Hồ Chí Minh Official(Lancaster Ho Chi Minh Serviced Apartment Official),4,8.4,Rất Tốt,43,301,TP. Hồ Chí Minh,,,10.78066,106.704628,Gần Phố Nhật Sài Gòn | Lê Thánh Tôn,,,,VND,,,Xem Phòng Trống,No,NORMAL
23646763,Khách sạn và Căn hộ DIC Star Landmark(Dic Star Landmark),4,8.9,Rất Tốt,43,7529,Vũng Tàu,,,10.349647,107.094617,"Gần Tượng đài Chúa Kitô | Trung tâm Vũng Tàu, Vũng Tàu",,,,VND,,,Xem Phòng Trống,No,NORMAL
101497773,Hoang Phi Saigon Hotel - Vintage(Hoang Phi Saigon Hotel - Vintage),3,8.3,Rất Tốt,55,301,TP. Hồ Chí Minh,,,10.767581,106.690837,Gần Phạm Ngũ Lão | Khu Phạm Ngũ Lão,,,,VND,,,Xem Phòng Trống,No,NORMAL
117513483,THE LUMIÈRE RIVERSIDE LUXURY SUITE(THE LUMIERE RIVERSIDE LUXURY SUITE),4,8.1,Rất Tốt,66,301,TP. Hồ Chí Minh,,,10.80364,106.7486,Gần Ga Tàu Điện Ngầm An Phú | An Phú,,,,VND,,,Xem Phòng Trống,No,NORMAL
35913091,Khách sạn Mai House Saigon(Mai House Saigon Hotel),5,9.5,Đáng Kinh Ngạc,745,301,TP. Hồ Chí Minh,,,10.782241,106.691871,Gần Phố Nhật Sài Gòn,,,,VND,,,Xem Phòng Trống,No,NORMAL
113996678,Hato Saigon Hotel & Rooftop(Hato Saigon Boutique Hotel & Rooftop),4,8.7,Rất Tốt,123,301,TP. Hồ Chí Minh,,,10.772155,106.702711,Gần Phố Nhật Sài Gòn | Trung tâm Thành phố Hồ Chí Minh,,,,VND,,,Xem Phòng Trống,No,NORMAL
120443123,Ruby Star Hotel Nam Quốc Cang(Ruby Star Hotel Nam Quoc Cang),2,7.8,Tốt,25,301,TP. Hồ Chí Minh,,,10.768086,106.687585,Gần Phạm Ngũ Lão | Trung tâm Thành phố Hồ Chí Minh,,,,VND,,,Xem Phòng Trống,No,NORMAL
713571,Petro House Vung Tau (Block B)(Petro House Vung Tau (Block B)),3,8.2,Rất Tốt,37,7529,Vũng Tàu,,,10.34968,107.07497,"Gần Tượng đài Chúa Kitô | Trung tâm Vũng Tàu, Vũng Tàu",,,,VND,,,Xem Phòng Trống,No,NORMAL
94168941,Kim Minh Boutique(Kim Minh Boutique),3,8.8,Rất Tốt,20,7529,Vũng Tàu,,,10.34893,107.075704,"Gần Tượng đài Chúa Kitô | Trung tâm Vũng Tàu, Vũng Tàu",,,,VND,,,Xem Phòng Trống,No,NORMAL
106229929,Dai Nam Boutique Hotel(Dai Nam Boutique Hotel),4,8.1,Rất Tốt,273,301,TP. Hồ Chí Minh,,,10.768547,106.696122,Gần Phạm Ngũ Lão,,,,VND,,,Xem Phòng Trống,No,NORMAL
109775318,Express by M Village Nguyễn Du(Express by M Village Nguyen Du),3,8.9,Rất Tốt,96,301,TP. Hồ Chí Minh,,,10.772273,106.692907,Gần Phạm Ngũ Lão | Trung tâm Thành phố Hồ Chí Minh,,,,VND,,,Xem Phòng Trống,No,NORMAL
128147484,Landmark Plus Center Suite - Vinhomes Central Park(Landmark Plus Center Suite),4,8.5,Rất Tốt,13,301,TP. Hồ Chí Minh,,,10.79555,106.72105,Gần Landmark 81 Sky View Observatory | Công viên Vinhome Central Park,,,,VND,,,Xem Phòng Trống,No,NORMAL
114762813,KIN WANDER TRUNG SƠN(KIN WANDER TRUNG SON),3,8.3,Rất Tốt,14,301,TP. Hồ Chí Minh,,,10.729466,106.689121,Gần Trung tâm Hội chợ và Triển lãm Sài Gòn,,,,VND,,,Xem Phòng Trống,No,NORMAL
128666857,Siris Mia Residence - Self Check In(Siris Mia Residence - Self Check In),2,8.7,Rất Tốt,27,301,TP. Hồ Chí Minh,,,10.733883,106.707627,Gần Trung tâm Hội chợ và Triển lãm Sài Gòn | Phú Mỹ Hưng,,,,VND,,,Xem Phòng Trống,No,NORMAL
108657370,M City Hotel Saigon(M City Hotel Saigon),4,8.9,Rất Tốt,451,301,TP. Hồ Chí Minh,,,10.771456,106.694442,Gần Phạm Ngũ Lão | Trung tâm Thành phố Hồ Chí Minh,,,,VND,,,Xem Phòng Trống,No,NORMAL
120262796,Urban Zen Saigon - Celadon Aeon Mall(Urban Zen Saigon - Celadon Aeon Mall),3,8.0,Rất Tốt,10,301,TP. Hồ Chí Minh,,,10.802326,106.614942,"Gần Hoa Nắng Spa, 958/37 Âu cơ, phường 14, Tân Bình, Thành phố Hồ Chí Minh",,,,VND,,,Xem Phòng Trống,No,NORMAL
117683494,Lena Condotel(Lena Condotel),3,8.7,Rất Tốt,44,301,TP. Hồ Chí Minh,,,10.731489,106.718599,Gần Trung tâm Hội chợ và Triển lãm Sài Gòn | Phú Mỹ Hưng,,,,VND,,,Xem Phòng Trống,No,NORMAL
124510228,ZENITY Saigon District 1(ZENITY Saigon District 1),4,8.4,Rất Tốt,27,301,TP. Hồ Chí Minh,,,10.755753,106.688019,Gần Phạm Ngũ Lão,,,,VND,,,Xem Phòng Trống,No,NORMAL
108682926,Ixora Hồ Tràm By Fusion(Ixora Ho Tram by Fusion),5,9.2,Tuyệt Vời,80,681904,Phước Thuận,,,10.488706,107.456959,"Gần Hồ Tràm, Phước Thuận",,,,VND,,,Xem Phòng Trống,No,NORMAL
120235932,Ha Do Centrosa - Luxury Central Point(Ha Đo Centrosa - Luxury Central Point),4,8.5,Rất Tốt,15,301,TP. Hồ Chí Minh,,,10.775904,106.678795,Gần Phạm Ngũ Lão,,,,VND,,,Xem Phòng Trống,No,NORMAL
105750765,LA OPERA SAIGON HOTEL(La Opera Saigon Hotel),3,8.4,Rất Tốt,98,301,TP. Hồ Chí Minh,,,10.780886,106.706177,Gần Phố Nhật Sài Gòn | Lê Thánh Tôn,,,,VND,,,Xem Phòng Trống,No,NORMAL
132619665,Luxury Landmark 81 Urban Vinhomes Riverside(Luxury Landmark 81 Urban Vinhomes Riverside),3,8.7,Rất Tốt,35,301,TP. Hồ Chí Minh,,,10.79508,106.722085,Gần Landmark 81 Sky View Observatory | Công viên Vinhome Central Park,,,,VND,,,Xem Phòng Trống,No,NORMAL
128652750,THE STAR HOTEL(THE STAR HOTEL),2,8.6,Rất Tốt,7,301,TP. Hồ Chí Minh,,,10.731404,106.707906,Gần Trung tâm Hội chợ và Triển lãm Sài Gòn | Phú Mỹ Hưng,,,,VND,,,Xem Phòng Trống,No,NORMAL
16052500,"The Bach Suites Saigon(Bach Suites Saigon, a Member of Design Hotels)",4,8.6,Rất Tốt,179,301,TP. Hồ Chí Minh,,,10.78256,106.696754,Gần Phố Nhật Sài Gòn,,,,VND,,,Xem Phòng Trống,No,NORMAL
102648291,Cozrum Homes - Autumn House(Cozrum Homes - Autumn House),3,7.6,Tốt,22,301,TP. Hồ Chí Minh,,,10.798408,106.699713,Gần Phố Nhật Sài Gòn,,,,VND,,,Xem Phòng Trống,No,NORMAL
713670,Khách sạn Lotus Saigon(Lotus Saigon Hotel),4,7.9,Tốt,250,301,TP. Hồ Chí Minh,,,10.777013,106.683422,Gần Phạm Ngũ Lão,,,,VND,,,Xem Phòng Trống,No,NORMAL
713933,Kin Hotel Thi Sách(Kin Hotel Thi Sach),4,9.1,Tuyệt Vời,461,301,TP. Hồ Chí Minh,,,10.777745,106.70482,Gần Phố Nhật Sài Gòn | Lê Thánh Tôn,,,,VND,,,Xem Phòng Trống,No,NORMAL
35090350,Emerald Central(Emerald Central),3,7.6,Tốt,62,301,TP. Hồ Chí Minh,,,10.789498,106.686899,Gần Nhà Thờ Giáo Xứ Tân Định,,,,VND,,,Xem Phòng Trống,No,NORMAL
129077241,Luxury Landmark 81 & Vinhomes Urban Royal River City(Luxury Landmark 81 & Vinhomes Urban Royal River City),2,9.6,Đáng Kinh Ngạc,208,301,TP. Hồ Chí Minh,,,10.79531,106.72202,Gần Landmark 81 Sky View Observatory | Công viên Vinhome Central Park,,,,VND,,,Xem Phòng Trống,No,NORMAL
131563005,Midtown Premium Apartments(Midtown Premium Apartments),3,10.0,Nổi Bật,1,301,TP. Hồ Chí Minh,,,10.726532,106.728563,Gần Trung tâm Hội chợ và Triển lãm Sài Gòn,,,,VND,,,Xem Phòng Trống,No,NORMAL
132042207,Diamond Suite Star Hill Apartment(Diamond Suite Star Hill Apartment),4,8.0,Rất Tốt,1,301,TP. Hồ Chí Minh,,,10.729007,106.725105,Gần Trung tâm Hội chợ và Triển lãm Sài Gòn | Phú Mỹ Hưng,,,,VND,,,Xem Phòng Trống,No,NORMAL
127645343,Collection O District 10 Near Van Hanh Hospital Formerly Lan Rung Hotel(Collection O District 10 Near Van Hanh Hospital Formerly Lan Rung Hotel),3,6.7,,27,301,TP. Hồ Chí Minh,,,10.772344,106.672021,Gần Phạm Ngũ Lão,,,,VND,,,Xem Phòng Trống,No,NORMAL
127891030,Phú Gia Hotel 2160 Huỳnh Tấn Phát(Phu Gia Hotel 2160 Huynh Tan Phat),2,,,,301,TP. Hồ Chí Minh,,,10.686277,106.743725,Gần Trung tâm Hội chợ và Triển lãm Sài Gòn,,,,VND,,,Xem Phòng Trống,No,NORMAL
99889565,Khách sạn Edoya Phú Mỹ Hưng(Edoya Hotel Phu My Hung),3,7.7,Tốt,36,301,TP. Hồ Chí Minh,,,10.732136,106.708961,Gần Trung tâm Hội chợ và Triển lãm Sài Gòn | Phú Mỹ Hưng,,,,VND,,,Xem Phòng Trống,No,NORMAL
703823,Khách Sạn ACE(Ace Hotel Ho Chi Minh City),3,7.5,,103,301,TP. Hồ Chí Minh,,,10.769147,106.690365,Gần Phạm Ngũ Lão | Trung tâm Thành phố Hồ Chí Minh,,,,VND,,,Xem Phòng Trống,No,NORMAL
122124039,SECC Scenic Valley Distrist 7(SECC Scenic Valley Distrist 7),3,8.1,Rất Tốt,12,301,TP. Hồ Chí Minh,,,10.731391,106.717103,Gần Trung tâm Hội chợ và Triển lãm Sài Gòn | Phú Mỹ Hưng,,,,VND,,,Xem Phòng Trống,No,NORMAL
97715106,Khách sạn Ailen Garden II(Ailen Garden 2 Hotel),2,7.9,Tốt,42,301,TP. Hồ Chí Minh,,,10.767265,106.691013,Gần Phạm Ngũ Lão | Khu Phạm Ngũ Lão,,,,VND,,,Xem Phòng Trống,No,NORMAL
2125628,Somerset Hồ Chí Minh City(Somerset Ho Chi Minh City),5,9.0,Tuyệt Vời,348,301,TP. Hồ Chí Minh,,,10.789861,106.703128,Gần Phố Nhật Sài Gòn,,,,VND,,,Xem Phòng Trống,No,NORMAL
97459361,Hotel DMelin(Hotel DMelin),4,8.2,Rất Tốt,46,7529,Vũng Tàu,,,10.341968,107.076162,"Gần Tượng đài Chúa Kitô | Trung tâm Vũng Tàu, Vũng Tàu",,,,VND,,,Xem Phòng Trống,No,NORMAL
19551830,Khách sạn Lotte Saigon(Lotte Hotel Saigon),5,9.3,Tuyệt Vời,69,301,TP. Hồ Chí Minh,,,10.778629,106.706834,Gần Phố Nhật Sài Gòn | Lê Thánh Tôn,,,,VND,,,Xem Phòng Trống,No,NORMAL
16050371,"Nhà Go Sweet - Khu dân cư Rivergate(GreenLine Service Aparts - Luxious, Heart of city)",3,3.2,,23,301,TP. Hồ Chí Minh,,,10.761671,106.697506,Gần Phạm Ngũ Lão | Ven sông Bạch Đằng,,,,VND,,,Xem Phòng Trống,No,NORMAL
124546601,SOHO Luxe Central Saigon(SOHO Luxe Central Saigon),4,8.5,Rất Tốt,31,301,TP. Hồ Chí Minh,,,10.763622,106.694456,Gần Phố đi bộ Bùi Viện,,,,VND,,,Xem Phòng Trống,No,NORMAL
130291209,The Sóng Vũng Tàu - Hồng Hạnh Apartments(The Song Vung Tau - Hong Hanh Apartments),3,10.0,Nổi Bật,1,7529,Vũng Tàu,,,10.350025,107.095862,"Gần Tượng đài Chúa Kitô | Trung tâm Vũng Tàu, Vũng Tàu",,,,VND,,,Xem Phòng Trống,No,NORMAL
11328213,CĂN HỘ SAM ROYAL(Sam Royal Apartment),4,8.2,Rất Tốt,28,301,TP. Hồ Chí Minh,,,10.77451,106.696403,Gần Phạm Ngũ Lão | Trung tâm Thành phố Hồ Chí Minh,,,,VND,,,Xem Phòng Trống,No,NORMAL
121755712,Homestay View biển Bãi Sau - Sea View Thủy Homestay(Sea View Thuy Homestay),2,8.1,Rất Tốt,,7529,Vũng Tàu,,,10.330319,107.088076,"Gần Tượng đài Chúa Kitô | Trung tâm Vũng Tàu, Vũng Tàu",,,,VND,,,Xem Phòng Trống,No,NORMAL
2550568,Ho Tram Beach Boutique Resort & Spa(Ho Tram Beach Boutique Resort & Spa),4,9.5,Đáng Kinh Ngạc,79,681904,Phước Thuận,,,10.470438,107.400938,"Gần Hồ Tràm, Phước Thuận",,,,VND,,,Xem Phòng Trống,No,NORMAL
38938411,The Solith Hotel Managed by Nicecy(The Solith Hotel Managed by Nicecy),3,8.5,Rất Tốt,293,301,TP. Hồ Chí Minh,,,10.78173,106.70549,Gần Phố Nhật Sài Gòn | Lê Thánh Tôn,,,,VND,,,Xem Phòng Trống,No,NORMAL
23780170,Khách sạn Vias Vũng Tàu(Vias Hotel Vung Tau),5,9.0,Tuyệt Vời,198,7529,Vũng Tàu,,,10.352433,107.101442,"Trung tâm Vũng Tàu, Vũng Tàu",,,,VND,,,Xem Phòng Trống,No,NORMAL
132008756,Khách sạn Bin Bin 17 - Gần GS Metro City(Bin Bin Hotel 17 - Near GS Metro City),2,,,,301,TP. Hồ Chí Minh,,,10.705801,106.707828,Gần Trung tâm Hội chợ và Triển lãm Sài Gòn,,,,VND,,,Xem Phòng Trống,No,NORMAL
3735622,Khách sạn Pullman Vũng Tàu(Pullman Vung Tau),5,8.9,Rất Tốt,150,7529,Vũng Tàu,,,10.348162,107.094461,"Gần Tượng đài Chúa Kitô | Trung tâm Vũng Tàu, Vũng Tàu",,,,VND,,,Xem Phòng Trống,No,NORMAL
2637837,Hôtel des Arts Saigon - MGallery Collection(Hotel des Arts Saigon Mgallery Collection),5,9.5,Đáng Kinh Ngạc,160,301,TP. Hồ Chí Minh,,,10.782369,106.697302,Gần Phố Nhật Sài Gòn,,,,VND,,,Xem Phòng Trống,No,NORMAL
124672265,SECC Luxe District 7(SECC Luxe District 7),4,9.1,Tuyệt Vời,9,301,TP. Hồ Chí Minh,,,10.72894,106.723852,Gần Trung tâm Hội chợ và Triển lãm Sài Gòn | Phú Mỹ Hưng,,,,VND,,,Xem Phòng Trống,No,NORMAL
1314815,Khách sạn A&A Toronto(A&A Toronto Hotel),2,7.5,,22,301,TP. Hồ Chí Minh,,,10.771973,106.696207,Gần Phạm Ngũ Lão | Khu chợ Bến Thành,,,,VND,,,Xem Phòng Trống,No,NORMAL
713563,Khách sạn Rex Vũng Tàu(Rex Hotel Vung Tau),3,8.7,Rất Tốt,47,7529,Vũng Tàu,,,10.34877,107.07281,"Gần Tượng đài Chúa Kitô | Phường 1, Vũng Tàu",,,,VND,,,Xem Phòng Trống,No,NORMAL
2561518,Khu nghỉ dưỡng bãi biển Carmelina(Carmelina Beach Resort Ho Tram),4,9.2,Tuyệt Vời,62,681904,Phước Thuận,,,10.474303,107.446643,"Gần Hồ Tràm, Phước Thuận",,,,VND,,,Xem Phòng Trống,No,NORMAL
713606,Khách Sạn Kiều Anh Vũng Tàu(Kieu Anh Hotel),3,7.5,,12,7529,Vũng Tàu,,,10.350042,107.092445,"Gần Tượng đài Chúa Kitô | Trung tâm Vũng Tàu, Vũng Tàu",,,,VND,,,Xem Phòng Trống,No,NORMAL
758763,Norfolk Mansion Luxury Serviced Apartment(Norfolk Mansion - Luxury Serviced Apartment),5,8.4,Rất Tốt,86,301,TP. Hồ Chí Minh,,,10.78085,106.703949,Gần Phố Nhật Sài Gòn | Lê Thánh Tôn,,,,VND,,,Xem Phòng Trống,No,NORMAL
116623197,Khách sạn & Căn hộ Green LP(Green LP Hotel & Apartment),3,8.3,Rất Tốt,33,7529,Vũng Tàu,,,10.337176,107.080346,"Gần Tượng đài Chúa Kitô | Trung tâm Vũng Tàu, Vũng Tàu",,,,VND,,,Xem Phòng Trống,No,NORMAL
114515921,Hotel Indigo Saigon The City By IHG(Hotel Indigo Saigon The City By IHG),5,9.0,Tuyệt Vời,163,301,TP. Hồ Chí Minh,,,10.78232,106.70517,Gần Phố Nhật Sài Gòn | Japanese  Area,,,,VND,,,Xem Phòng Trống,No,NORMAL
124009756,Gem Villa 188(Gem Villa 188),3,10.0,Nổi Bật,,301,TP. Hồ Chí Minh,,,10.81178,106.72956,Gần Trường Đại học Quốc tế Sài Gòn | Thảo Điền,,,,VND,,,Xem Phòng Trống,No,NORMAL
130144185,StayX Thung Lũng Cảnh Quan A(StayX Scenic Valley A),3,10.0,Nổi Bật,1,301,TP. Hồ Chí Minh,,,10.731663,106.718337,Gần Trung tâm Hội chợ và Triển lãm Sài Gòn | Phú Mỹ Hưng,,,,VND,,,Xem Phòng Trống,No,NORMAL
4978927,Alagon D'antique Hotel & Spa(Alagon D'antique Hotel & Spa),4,8.7,Rất Tốt,332,301,TP. Hồ Chí Minh,,,10.771731,106.693999,Gần Phạm Ngũ Lão | Trung tâm Thành phố Hồ Chí Minh,,,,VND,,,Xem Phòng Trống,No,NORMAL
10166034,City by Night Ben Thanh Apartments(City by Night Ben Thanh Apartments),3,8.5,Rất Tốt,43,301,TP. Hồ Chí Minh,,,10.768912,106.697147,Gần Phạm Ngũ Lão,,,,VND,,,Xem Phòng Trống,No,NORMAL
131766890,PARK VIEW Avalon Apartment District 1 HCM City(PARK VIEW Avalon Apartment District 1 HCM City),4,9.5,Đáng Kinh Ngạc,5,301,TP. Hồ Chí Minh,,,10.779658,106.695498,Gần Phố Nhật Sài Gòn | Trung tâm Thành phố Hồ Chí Minh,,,,VND,,,Xem Phòng Trống,No,NORMAL
128306864,SIN OAE HOTEL(SIN OAE HOTEL),3,7.8,Tốt,,7529,Vũng Tàu,,,10.329786,107.088004,"Gần Tượng đài Chúa Kitô | Trung tâm Vũng Tàu, Vũng Tàu",,,,VND,,,Xem Phòng Trống,No,NORMAL
120100254,Căn hộ CSJ GROUP 3 phòng ngủ nhìn ra biển(Sea view & City view  3-bedroom CSJ GROUP Vung Tau),2,9.0,Tuyệt Vời,6,7529,Vũng Tàu,,,10.346052,107.095406,"Gần Tượng đài Chúa Kitô | Trung tâm Vũng Tàu, Vũng Tàu",,,,VND,,,Xem Phòng Trống,No,NORMAL
3914787,Song Xanh Hotel Near Secc - FV(Song Xanh Hotel Near Secc - FV),2,6.6,,1,301,TP. Hồ Chí Minh,,,10.73669,106.72063,Gần Trung tâm Hội chợ và Triển lãm Sài Gòn,,,,VND,,,Xem Phòng Trống,No,NORMAL
107890105,An Corner - Soho Residence Service Apartment(An Corner - Soho Residence Service Apartment),3,8.5,Rất Tốt,55,301,TP. Hồ Chí Minh,,,10.763257,106.694606,Gần Phạm Ngũ Lão,,,,VND,,,Xem Phòng Trống,No,NORMAL
23915384,Melia Ho Tram Beach Resort(Melia Ho Tram Beach Resort),5,9.1,Tuyệt Vời,198,681904,Phước Thuận,,,10.471767,107.388208,Phước Thuận,,,,VND,,,Xem Phòng Trống,No,NORMAL
713725,Khách sạn P&T Vũng Tàu(Vung Tau P&T Hotel),3,7.0,,25,7529,Vũng Tàu,,,10.341113,107.074114,"Gần Tượng đài Chúa Kitô | Trung tâm Vũng Tàu, Vũng Tàu",,,,VND,,,Xem Phòng Trống,No,NORMAL
122482263,The Sóng Vũng Tàu - Bear Homestay(The Song Vung Tau - Luxury Apartment),4,7.9,Tốt,22,7529,Vũng Tàu,,,10.350025,107.095862,"Gần Tượng đài Chúa Kitô | Trung tâm Vũng Tàu, Vũng Tàu",,,,VND,,,Xem Phòng Trống,No,NORMAL
124643828,Hanh Phuc Hotel(Hanh Phuc Hotel),3,7.9,Tốt,14,301,TP. Hồ Chí Minh,,,10.756458,106.680829,Gần Phạm Ngũ Lão,,,,VND,,,Xem Phòng Trống,No,NORMAL
126505911,Phú Gia 2307 Huỳnh Tấn Phát(Phu Gia 2307 Huynh Tan Phat),2,3.0,,,301,TP. Hồ Chí Minh,,,10.685831,106.744385,Gần Trung tâm Hội chợ và Triển lãm Sài Gòn,,,,VND,,,Xem Phòng Trống,No,NORMAL
130608985,Senerity Sky Villas By Luminous Luxury Apartment(Senerity Sky Villas By Luminous Luxury Apartment),3,9.9,Nổi Bật,3,301,TP. Hồ Chí Minh,,,10.781618,106.689107,Gần Phạm Ngũ Lão,,,,VND,,,Xem Phòng Trống,No,NORMAL
47563054,Alleywayhome(Alleywayhome),2,6.0,,,301,TP. Hồ Chí Minh,,,10.768327,106.686759,Gần Phạm Ngũ Lão | Trung tâm Thành phố Hồ Chí Minh,,,,VND,,,Xem Phòng Trống,No,NORMAL
707157,The One Hotel Ben Thanh(The One Hotel Ben Thanh),3,7.4,,48,301,TP. Hồ Chí Minh,,,10.772546,106.694681,Gần Phạm Ngũ Lão | Trung tâm Thành phố Hồ Chí Minh,,,,VND,,,Xem Phòng Trống,No,NORMAL
713641,Khu căn hộ Sài Gòn Domaine Luxury(Saigon Domaine Luxury Residences),4,8.6,Rất Tốt,27,301,TP. Hồ Chí Minh,,,10.823083,106.73059,Gần Ga Bình Triệu,,,,VND,,,Xem Phòng Trống,No,NORMAL
119986819,Simmi Signature Hotel & Apartment(Simmi Signature Hotel & Apartment),3,7.3,,9,301,TP. Hồ Chí Minh,,,10.731886,106.709357,Gần Trung tâm Hội chợ và Triển lãm Sài Gòn | Phú Mỹ Hưng,,,,VND,,,Xem Phòng Trống,No,NORMAL
3176937,Seava Hồ Tràm(Seava Ho Tram Beach Resort),4,8.8,Rất Tốt,47,456591,Bưng Riềng,,,10.501061,107.482311,Bưng Riềng,,,,VND,,,Xem Phòng Trống,No,NORMAL
105596724,Khách sạn Dhawa Hồ Tràm(Dhawa Ho Tram),5,9.1,Tuyệt Vời,78,681904,Phước Thuận,,,10.469757,107.377261,Phước Thuận,,,,VND,,,Xem Phòng Trống,No,NORMAL
122059935,Crowne Bùi Viện Hotel(Crowne Bui Vien Hotel),2,6.2,,26,301,TP. Hồ Chí Minh,,,10.766826,106.69281,Gần Phạm Ngũ Lão | Khu Tây ba lô,,,,VND,,,Xem Phòng Trống,No,NORMAL
117726265,Homie's Dedge Thao Dien Luxury Apartment(Homie's Dedge Thao Dien Luxury Apartment),5,7.0,,1,301,TP. Hồ Chí Minh,,,10.812491,106.731087,Gần Ga Tàu Điện Ngầm Thảo Điền | Thảo Điền,,,,VND,,,Xem Phòng Trống,No,NORMAL
123446997,Velar Hotel Côn Đảo - Vũng Tàu(Velar Hotel Con Dao - Vung Tau),3,8.4,Rất Tốt,1,22037,Đảo Côn Đảo,,,8.680367,106.601743,"Gần đảo Côn Sơn, Đảo Côn Đảo",,,,VND,,,Xem Phòng Trống,No,NORMAL
127304940,La Rose Blanc Pool Villa(La Rose Blanc Pool Villa),3,8.5,Rất Tốt,1,301,TP. Hồ Chí Minh,,,10.804904,106.745717,Gần Ga Tàu Điện Ngầm An Phú | Thảo Điền,,,,VND,,,Xem Phòng Trống,No,NORMAL
127226730,Căn hộ Solara Sài Gòn Landmark(Solara Sai Gon Landmark Apartment),4,7.1,,11,301,TP. Hồ Chí Minh,,,10.796094,106.721073,Gần Landmark 81 Sky View Observatory | Công viên Vinhome Central Park,,,,VND,,,Xem Phòng Trống,No,NORMAL
117636404,LUMIERE RIVERSIDE APARTMENT IN HO CHI MINH(LUMIERE RIVERSIDE CONDOTEL IN CENTER HO CHI MINH),4,8.9,Rất Tốt,66,301,TP. Hồ Chí Minh,,,10.803642,106.748604,Gần Ga Tàu Điện Ngầm An Phú | An Phú,,,,VND,,,Xem Phòng Trống,No,NORMAL
113978822,Apartment Suite In Landmark 81 HCMC(Apartment Suite In Center Ho Chi Minh City),4,8.0,Rất Tốt,71,301,TP. Hồ Chí Minh,,,10.795314,106.721456,Gần Landmark 81 Sky View Observatory | Công viên Vinhome Central Park,,,,VND,,,Xem Phòng Trống,No,NORMAL
128918675,Khách Sạn Swan Boutique(Swan Boutique Hotel),3,6.7,,6,301,TP. Hồ Chí Minh,,,10.775957,106.758852,"Cách trung tâm 6,8km",,,,VND,,,Xem Phòng Trống,No,NORMAL
3905734,Sao Mai Phú Mỹ Resort(Sao Mai Resort),3,8.2,Rất Tốt,10,77133,Tân Thành,,,10.575951,107.058489,Tân Thành,,,,VND,,,Xem Phòng Trống,No,NORMAL
131761595,Lumière Riverside Panoramic View by Urban Home(Lumière Riverside Panoramic View by Urban Home),3,9.9,Nổi Bật,177,301,TP. Hồ Chí Minh,,,10.804193,106.749491,Gần Ga Tàu Điện Ngầm Rạch Chiếc | An Phú,,,,VND,,,Xem Phòng Trống,No,NORMAL
125437889,GOLDEN SUN HOTEL APARTMENTS 02(GOLDEN SUN HOTTEL APARTMENT 02),2,4.8,,5,301,TP. Hồ Chí Minh,,,10.732318,106.709584,Gần Trung tâm Hội chợ và Triển lãm Sài Gòn,,,,VND,,,Xem Phòng Trống,No,NORMAL
1508533,The One Premium Hotel(The One Premium Hotel),3,7.0,,63,301,TP. Hồ Chí Minh,,,10.77364,106.69721,Gần Chợ Bến Thành | Khu chợ Bến Thành,,,,VND,,,Xem Phòng Trống,No,NORMAL
1314974,M Village Hotel Tao Đàn Park(M Village Hotel Tao Dan Park),4,9.1,Tuyệt Vời,799,301,TP. Hồ Chí Minh,,,10.776686,106.691239,Gần Phạm Ngũ Lão,,,,VND,,,Xem Phòng Trống,No,NORMAL
132990225,PYNT HOTEL 6(PYNT HOTEL 6),3,,,,301,TP. Hồ Chí Minh,,,10.795937,106.651568,Gần Cảng hàng không Quốc tế Tân Sơn Nhất,,,,VND,,,Xem Phòng Trống,No,NORMAL
1465374,Palago Park View Hotel(Palago mc Hotel Park View),3,7.8,Tốt,30,301,TP. Hồ Chí Minh,,,10.767783,106.691227,Gần Phạm Ngũ Lão | Khu Phạm Ngũ Lão,,,,VND,,,Xem Phòng Trống,No,NORMAL
114424674,KN5 HOLIDAY VILLA(KN5 Holiday Villa),4,8.5,Rất Tốt,1,301,TP. Hồ Chí Minh,,,10.808345,106.750999,Gần Ga Tàu Điện Ngầm Rạch Chiếc | An Phú,,,,VND,,,Xem Phòng Trống,No,NORMAL
132129291,Lancaster Legacy Hotel & Apartments(Lancaster Legacy Hotel & Apartments),5,7.9,Tốt,2,301,TP. Hồ Chí Minh,,,10.764999,106.687425,Gần Phạm Ngũ Lão,,,,VND,,,Xem Phòng Trống,No,NORMAL
114677458,Otis Soho Saigon Balcony Apartment(Otis Soho Saigon Balcony Apartment),4,7.9,Tốt,46,301,TP. Hồ Chí Minh,,,10.763314,106.694603,Gần Phạm Ngũ Lão,,,,VND,,,Xem Phòng Trống,No,NORMAL
1314820,Khách sạn Saigon Charm(Saigon Charm Hotel),2,6.0,,286,301,TP. Hồ Chí Minh,,,10.773551,106.696605,Gần Phạm Ngũ Lão | Khu chợ Bến Thành,,,,VND,,,Xem Phòng Trống,No,NORMAL
105693883,Angsana Hồ Tràm(Angsana Ho Tram),5,8.6,Rất Tốt,42,681904,Phước Thuận,,,10.468805,107.377121,Phước Thuận,,,,VND,,,Xem Phòng Trống,No,NORMAL
1875330,Khách sạn A&EM - The Petit(A&EM - the Petit Hotel),2,7.9,Tốt,136,301,TP. Hồ Chí Minh,,,10.773135,106.696083,Gần Phạm Ngũ Lão | Khu chợ Bến Thành,,,,VND,,,Xem Phòng Trống,No,NORMAL
119673304,Lunaria Maison - Local Market Corner(Lunaria Maison - Local Market Corner),2,7.6,Tốt,2,301,TP. Hồ Chí Minh,,,10.766306,106.690773,Gần Phạm Ngũ Lão | Khu Phạm Ngũ Lão,,,,VND,,,Xem Phòng Trống,No,NORMAL
59018021,Khách sạn & Căn hộ Charmaine's(Charmaine's Boutique Hotel & Apartment),3,7.4,,29,301,TP. Hồ Chí Minh,,,10.733489,106.709251,Gần Trung tâm Hội chợ và Triển lãm Sài Gòn | Phú Mỹ Hưng,,,,VND,,,Xem Phòng Trống,No,NORMAL
6398714,Quang Minh Nguyet Hotel(Quang Minh Nguyet Hotel Ho Chi Minh City),3,7.2,,10,301,TP. Hồ Chí Minh,,,10.756111,106.671688,Gần Luxury,,,,VND,,,Xem Phòng Trống,No,NORMAL
1965535,Khách sạn và Căn hộ Asian Ruby(Asian Ruby Hotel Apartment - 122F Bui Thi Xuân Street),3,7.8,Tốt,30,301,TP. Hồ Chí Minh,,,10.76982,106.68825,Gần Phạm Ngũ Lão | Trung tâm Thành phố Hồ Chí Minh,,,,VND,,,Xem Phòng Trống,No,NORMAL
98048617,The Hotel Nicecy(The Hotel Nicecy),2,7.2,,41,301,TP. Hồ Chí Minh,,,10.771811,106.695676,Gần Phạm Ngũ Lão | Trung tâm Thành phố Hồ Chí Minh,,,,VND,,,Xem Phòng Trống,No,NORMAL
98488005,Cherry Central Hotel(Cherry Central Hotel),3,7.3,,200,301,TP. Hồ Chí Minh,,,10.779004,106.705013,Gần Phố Nhật Sài Gòn | Lê Thánh Tôn,,,,VND,,,Xem Phòng Trống,No,NORMAL
116836826,THE LANDMARK 81 LUXURY ART CONDOTEL(THE LANDMARK 81 LUXURY ART CONDOTEL),4,7.0,,52,301,TP. Hồ Chí Minh,,,10.795176,106.721694,Gần Landmark 81 Sky View Observatory | Hàng Xanh,,,,VND,,,Xem Phòng Trống,No,NORMAL
103631110,Minh Phước Villa(Minh Phuoc Villa),4,9.6,Đáng Kinh Ngạc,,7529,Vũng Tàu,,,10.374159,107.124311,"Phường 10, Vũng Tàu",,,,VND,,,Xem Phòng Trống,No,NORMAL
125162571,Pink Boutique Ben Thanh Hotel(Pink Boutique Ben Thanh Hotel),3,7.8,Tốt,42,301,TP. Hồ Chí Minh,,,10.774621,106.696577,Gần Phạm Ngũ Lão | Trung tâm Thành phố Hồ Chí Minh,,,,VND,,,Xem Phòng Trống,No,NORMAL
993225,Khách sạn Victory Sài Gòn(Victory Sai Gon Hotel),4,8.6,Rất Tốt,300,301,TP. Hồ Chí Minh,,,10.78031,106.69363,Gần Phạm Ngũ Lão,,,,VND,,,Xem Phòng Trống,No,NORMAL
132915171,The Song Premium Apartment - Căn Hộ Du Lịch Biển - Anh Khoa Homestay(The Song Premium Apartment - Anh Khoa Homestay),5,7.5,,3,7529,Vũng Tàu,,,10.350042,107.095818,"Gần Tượng đài Chúa Kitô | Trung tâm Vũng Tàu, Vũng Tàu",,,,VND,,,Xem Phòng Trống,No,NORMAL
129896686,Wonderland Royal Mansions Ho Tram(Wonderland Royal Mansions Ho Tram),4,8.5,Rất Tốt,1,681904,Phước Thuận,,,10.471279,107.383845,Phước Thuận,,,,VND,,,Xem Phòng Trống,No,NORMAL
2638258,A25 Hotel - 14 Phó Đức Chính(A25 Hotel - 14 Pho Duc Chinh),2,7.9,Tốt,35,301,TP. Hồ Chí Minh,,,10.768489,106.700635,Gần Phạm Ngũ Lão | Ven sông Bạch Đằng,,,,VND,,,Xem Phòng Trống,No,NORMAL
122177356,GEM Residence - The Manor Central(GEM Residence - The Manor Central),3,7.7,Tốt,3,301,TP. Hồ Chí Minh,,,10.793765,106.717905,Gần Landmark 81 Sky View Observatory | Hàng Xanh,,,,VND,,,Xem Phòng Trống,No,NORMAL
23781934,Khách sạn Aiden Saigon(Aiden Saigon Hotel),3,7.8,Tốt,164,301,TP. Hồ Chí Minh,,,10.742041,106.629036,Gần AEON MALL Bình Tân,,,,VND,,,Xem Phòng Trống,No,NORMAL
125216743,Sunrise City - Signature Stays(Sunrise City - Signature Stays),3,9.1,Tuyệt Vời,57,301,TP. Hồ Chí Minh,,,10.746005,106.701503,Gần Phạm Ngũ Lão,,,,VND,,,Xem Phòng Trống,No,NORMAL
124365548,Căn hộ dịch vụ cao cấp Vinhomes Central Park - Landmark 81(Vinhomes Central Park Landmark 81- Luxury Serviced Apartments),3,7.1,,12,301,TP. Hồ Chí Minh,,,10.795112,106.722096,Gần Landmark 81 Sky View Observatory | Công viên Vinhome Central Park,,,,VND,,,Xem Phòng Trống,No,NORMAL
4624880,Khách sạn Grand(Grand Hotel Vung Tau),4,7.7,Tốt,45,7529,Vũng Tàu,,,10.343574,107.075185,"Gần Tượng đài Chúa Kitô | Trung tâm Vũng Tàu, Vũng Tàu",,,,VND,,,Xem Phòng Trống,No,NORMAL
702126,Seaside Resort(Seaside Resort),4,7.8,Tốt,30,7529,Vũng Tàu,,,10.353109,107.064045,"Phường 1, Vũng Tàu",,,,VND,,,Xem Phòng Trống,No,NORMAL
94311400,Gold Hotel Saigon(Gold Hotel Saigon),2,7.8,Tốt,6,301,TP. Hồ Chí Minh,,,10.77182,106.69504,Gần Phạm Ngũ Lão | Trung tâm Thành phố Hồ Chí Minh,,,,VND,,,Xem Phòng Trống,No,NORMAL
132991211,PYNT HOTEL 7(PYNT HOTEL 7),3,,,,301,TP. Hồ Chí Minh,,,10.793761,106.638843,"Gần Hoa Nắng Spa, 958/37 Âu cơ, phường 14, Tân Bình, Thành phố Hồ Chí Minh",,,,VND,,,Xem Phòng Trống,No,NORMAL
125123946,The Gallieria & Crest - Panorama Sky View(The Gallieria & Crest - Panorama Sky View),5,8.2,Rất Tốt,10,301,TP. Hồ Chí Minh,,,10.779339,106.713821,Gần Phố Nhật Sài Gòn,,,,VND,,,Xem Phòng Trống,No,NORMAL
117231981,The Sóng Sunny Canopy(The Song Sunny Canopy),3,6.4,,2,7529,Vũng Tàu,,,10.350025,107.095862,"Gần Tượng đài Chúa Kitô | Trung tâm Vũng Tàu, Vũng Tàu",,,,VND,,,Xem Phòng Trống,No,NORMAL
713721,Khách Sạn Corvin(Corvin Hotel),3,7.6,Tốt,20,7529,Vũng Tàu,,,10.330173,107.08799,"Gần Tượng đài Chúa Kitô | Trung tâm Vũng Tàu, Vũng Tàu",,,,VND,,,Xem Phòng Trống,No,NORMAL
115831637,Golden Rose Hotel Côn Đảo(Golden Rose Hotel Con Dao),3,8.8,Rất Tốt,3,22037,Đảo Côn Đảo,,,8.684751,106.612413,"Gần đảo Côn Sơn, Đảo Côn Đảo",,,,VND,,,Xem Phòng Trống,No,NORMAL
122764117,Urban Hotel(Urban Hotel),3,6.8,,5,301,TP. Hồ Chí Minh,,,10.811723,106.711091,Gần Landmark 81 Sky View Observatory,,,,VND,,,Xem Phòng Trống,No,NORMAL
3905731,New Wave Vung Tau Hotel(New Wave Vung Tau Hotel),4,7.2,,4,7529,Vũng Tàu,,,10.340555,107.092808,"Gần Tượng đài Chúa Kitô | Trung tâm Vũng Tàu, Vũng Tàu",,,,VND,,,Xem Phòng Trống,No,NORMAL
132689258,"Peanuts Home Lê Lai - Chic Local Stay, 5m Walk to Ben Thanh & Bui Vien(Peanuts Home Lê Lai - Chic Local Stay, 5m Walk to Ben Thanh & Bui Vien)",4,,,,301,TP. Hồ Chí Minh,,,10.770031,106.693154,Gần Phạm Ngũ Lão | Trung tâm Thành phố Hồ Chí Minh,,,,VND,,,Xem Phòng Trống,No,NORMAL
703713,Khách sạn Dyn Opera(Dyn Opera Hotel),3,6.7,,118,301,TP. Hồ Chí Minh,,,10.778063,106.704146,Gần Phố Nhật Sài Gòn | Lê Thánh Tôn,,,,VND,,,Xem Phòng Trống,No,NORMAL
2865985,Khách sạn Bến Thành Boutique(Ben Thanh Boutique Hotel),3,7.8,Tốt,41,301,TP. Hồ Chí Minh,,,10.76891,106.69767,Gần Phạm Ngũ Lão,,,,VND,,,Xem Phòng Trống,No,NORMAL
38640422,Khách sạn Winsuites Saigon(Winsuites Saigon Hotel),4,9.0,Tuyệt Vời,275,301,TP. Hồ Chí Minh,,,10.771513,106.697118,Gần Phạm Ngũ Lão | Khu chợ Bến Thành,,,,VND,,,Xem Phòng Trống,No,NORMAL
119821075,Nereus Hotel(Nereus Hotel),3,8.8,Rất Tốt,7,22037,Đảo Côn Đảo,,,8.682417,106.60484,"Gần đảo Côn Sơn, Đảo Côn Đảo",,,,VND,,,Xem Phòng Trống,No,NORMAL
129940240,LaChateau(LaChateau),5,,,,301,TP. Hồ Chí Minh,,,10.729166,106.625848,Gần AEON MALL Bình Tân,,,,VND,,,Xem Phòng Trống,No,NORMAL
125216729,Cardinal Court Summit near SECC(Cardinal Court Summit near SECC),3,9.3,Tuyệt Vời,52,301,TP. Hồ Chí Minh,,,10.729332,106.723425,Gần Trung tâm Hội chợ và Triển lãm Sài Gòn | Phú Mỹ Hưng,,,,VND,,,Xem Phòng Trống,No,NORMAL
131554246,Royal Crown Hotel(Royal Crown Hotel),3,6.6,,2,301,TP. Hồ Chí Minh,,,10.732782,106.710035,Gần Trung tâm Hội chợ và Triển lãm Sài Gòn,,,,VND,,,Xem Phòng Trống,No,NORMAL
129016497,The Royal Healing - Phú Mỹ Hưng(The Royal Healing - Phu My Hung),2,4.0,,1,301,TP. Hồ Chí Minh,,,10.726461,106.706463,Gần Trung tâm Hội chợ và Triển lãm Sài Gòn | Phú Mỹ Hưng,,,,VND,,,Xem Phòng Trống,No,NORMAL
124584576,The MarQ Saigon District 1(The MarQ Saigon District 1),5,7.6,Tốt,3,301,TP. Hồ Chí Minh,,,10.787602,106.698906,Gần Phố Nhật Sài Gòn,,,,VND,,,Xem Phòng Trống,No,NORMAL
132379263,Uhouse - MELIA Thao Dien Hotel & Aparment(Uhouse - MELIA Thao Dien Hotel & Aparment),3,,,,301,TP. Hồ Chí Minh,,,10.806614,106.730122,Gần Trường Đại học Quốc tế Sài Gòn | Thảo Điền,,,,VND,,,Xem Phòng Trống,No,NORMAL
126630171,ORA Serviced Apartments - Binh Duong New City(ORA Serviced Apartments - Binh Duong New City),3,6.9,,25,459382,Phú Chánh,,,11.054338,106.691614,"Gần Hall A - TRUNG TÂM TRIỂN LÃM QUỐC TẾ WTC EXPO, Phú Chánh",,,,VND,,,Xem Phòng Trống,No,NORMAL
26583292,M Hotel Saigon(M Hotel Saigon),4,8.7,Rất Tốt,258,301,TP. Hồ Chí Minh,,,10.773196,106.701851,Gần Phố Nhật Sài Gòn | Khu Nguyễn Huệ,,,,VND,,,Xem Phòng Trống,No,NORMAL
2662280,Khách sạn Kỳ Hòa(KY Hoa Hotel Ho Chi Minh),3,6.8,,17,301,TP. Hồ Chí Minh,,,10.772277,106.674962,Gần Phạm Ngũ Lão,,,,VND,,,Xem Phòng Trống,No,NORMAL
56929025,Côn Đảo House(Con Dao House),3,9.6,Đáng Kinh Ngạc,2,22037,Đảo Côn Đảo,,,8.687921,106.608023,"Gần đảo Côn Sơn, Đảo Côn Đảo",,,,VND,,,Xem Phòng Trống,No,NORMAL
117879424,LUMIERE RIVERSIDE CONDOTEL(LUMIERE RIVERSIDE CONDOTEL RESIDENT SUITE),5,7.9,Tốt,16,301,TP. Hồ Chí Minh,,,10.803641,106.748605,Gần Ga Tàu Điện Ngầm An Phú | An Phú,,,,VND,,,Xem Phòng Trống,No,NORMAL
127959621,D1MENSION Luxury Apartment City Center(D1MENSION Luxury Apartment City Center),3,9.2,Tuyệt Vời,64,301,TP. Hồ Chí Minh,,,10.755217,106.687556,Gần Phạm Ngũ Lão,,,,VND,,,Xem Phòng Trống,No,NORMAL
23779208,Scenic Valley Boutique(Scenic Valley Boutique),3,7.1,,15,301,TP. Hồ Chí Minh,,,10.73072,106.7181,Gần Trung tâm Hội chợ và Triển lãm Sài Gòn | Phú Mỹ Hưng,,,,VND,,,Xem Phòng Trống,No,NORMAL
99555429,Nhà Của Thóc - CSJ Tower Vũng Tàu(Nha Cua Thoc - CSJ Tower Vung Tau),3,7.7,Tốt,11,7529,Vũng Tàu,,,10.351009,107.099833,"Trung tâm Vũng Tàu, Vũng Tàu",,,,VND,,,Xem Phòng Trống,No,NORMAL
4978750,Lotus Vung Tau Resort & Spa(Lotus Vung Tau Resort & Spa),4,7.2,,12,7529,Vũng Tàu,,,10.347421,107.097547,"Gần Tượng đài Chúa Kitô | Trung tâm Vũng Tàu, Vũng Tàu",,,,VND,,,Xem Phòng Trống,No,NORMAL
100633184,SAO CONDOR(SAO CONDOR),3,8.6,Rất Tốt,,22037,Đảo Côn Đảo,,,8.700929,106.61926,"Gần đảo Côn Sơn, Đảo Côn Đảo",,,,VND,,,Xem Phòng Trống,No,NORMAL
3793417,Mercure Vũng Tàu(Mercure Vung Tau Resort),4,7.8,Tốt,85,7529,Vũng Tàu,,,10.326966,107.081297,"Gần Tượng đài Chúa Kitô | Trung tâm Vũng Tàu, Vũng Tàu",,,,VND,,,Xem Phòng Trống,No,NORMAL
2104915,The Odys Boutique Hotel(The Odys Boutique Hotel),4,9.2,Tuyệt Vời,213,301,TP. Hồ Chí Minh,,,10.769508,106.700058,Gần Phạm Ngũ Lão | Trung tâm Thành phố Hồ Chí Minh,,,,VND,,,Xem Phòng Trống,No,NORMAL
132306196,Accord Hotel Binh Tan(Accord Hotel Binh Tan),3,,,2,301,TP. Hồ Chí Minh,,,10.748606,106.614019,Gần AEON MALL Bình Tân,,,,VND,,,Xem Phòng Trống,No,NORMAL
132114107,Căn hộ Central Park Vinhomes(Central Park Vinhomes Apartments),4,,,,301,TP. Hồ Chí Minh,,,10.795418,106.72255,Gần Landmark 81 Sky View Observatory | Công viên Vinhome Central Park,,,,VND,,,Xem Phòng Trống,No,NORMAL
101912254,Language Exchange Hotel 3(Language Exchange Hotel 3),3,5.8,,41,301,TP. Hồ Chí Minh,,,10.764649,106.685558,Gần Phạm Ngũ Lão,,,,VND,,,Xem Phòng Trống,No,NORMAL
65184435,The Secret Côn Đảo(The Secret Con Dao),4,9.0,Tuyệt Vời,66,22037,Đảo Côn Đảo,,,8.685999,106.613241,"Gần Côn Đảo, Đảo Côn Đảo",,,,VND,,,Xem Phòng Trống,No,NORMAL
122379855,"SOHO Suites - Saigon Central, 5-Min-To-Bui Vien Street(SOHO Suites - Saigon Central, 5-Min-To-Bui Vien Street)",3,5.6,,,301,TP. Hồ Chí Minh,,,10.763235,106.69469,Gần Phạm Ngũ Lão | Ven sông Bạch Đằng,,,,VND,,,Xem Phòng Trống,No,NORMAL
